Licence number,Licence type,Start date,Status,Status date,Trading Status,Licence name,Address,Suburb,Postcode,Latitude,Longitude,LGA,Precinct,Region,Licensee,Business type,Authorisation restriction name,Extended trading,Reduced trading,Primary service,Right to keep gaming,Unrestricted,To 12am,To 3am,To 5am,SA2,Subject to Cap,Band,GMEs,PMPs,Auth limit,Unfulfilled Quota,GMT,EGMs,Year,Licensee ABN,Licensee ACN,Licensee Type
LIQH440019039,Liquor - hotel licence,2021-08-20 00:00:00,Current,2021-08-20 00:00:00,Trading,Ace Hotel Sydney,47-53 Wentworth Avenue,SURRY HILLS,2010.0,-33.878795,151.20999,Sydney,Sydney CBD Precinct,Metropolitan,The Trustee for GA Wentworth Ave Unit Trust,Full hotel,"Extended trading authorisation,Minors area authorisation,Right to keep gaming machines",Yes,No,No,Yes,No,Yes,Yes,Yes,Sydney - Haymarket - The Rocks,No,2.0,0,0,0,0,0,0,2022,,,
LIQH440019029,Liquor - hotel licence,2020-11-24 00:00:00,Current,2020-11-24 00:00:00,Trading,The Porter House Hotel Sydney - MGallery,Corner 116 Bathurst Street,SYDNEY,2000.0,-33.874303,151.208756,Sydney,Sydney CBD Precinct,Metropolitan,UNITED DEVELOPMENT SYDNEY PTY LTD,Full hotel,"Extended trading authorisation,Minors area authorisation,Right to keep gaming machines",Yes,No,No,Yes,No,Yes,Yes,No,Sydney - Haymarket - The Rocks,No,2.0,0,0,0,0,0,0,2022,,,
LIQH440019005,Liquor - hotel licence,2018-10-24 00:00:00,Current,2018-10-28 00:00:00,Trading,The Marsden Brewhouse,1 Hawthorne Avenue,MARSDEN PARK,2765.0,-33.71303,150.841465,Blacktown,,Metropolitan,Jonathon Smith,Full hotel,"Extended trading authorisation,Minors area authorisation,Minors functions authorisation,Right to kee",Yes,No,No,Yes,No,Yes,Yes,No,Riverstone - Marsden Park,No,1.0,4,21,25,0,25,25,2022,,,
LIQH440018996,Liquor - hotel licence,2018-05-31 00:00:00,Current,2018-05-31 00:00:00,Trading,The Locker Room Hotel,Corner of Olympic Boulevard and the Yulang,SYDNEY OLYMPIC PARK,2127.0,-33.847007,151.066547,Parramatta,,Metropolitan,Nigel GALLAGHER,Full hotel,"Extended trading authorisation,Minors area authorisation,Right to keep gaming machines",Yes,No,No,Yes,No,Yes,Yes,No,Homebush Bay - Silverwater,No,1.0,20,0,20,0,20,20,2022,,,
LIQH440018995,Liquor - hotel licence,2018-05-17 00:00:00,Current,2021-06-29 00:00:00,Trading,Mullane's,Units 12 & 13 34-36 Brookhollow Avenue,BAULKHAM HILLS,2153.0,-33.733254,150.965955,The Hills Shire,,Metropolitan,Madison Laird,Full hotel,"Extended trading authorisation,Minors area authorisation,Right to keep gaming machines",Yes,No,No,Yes,No,Yes,Yes,No,Baulkham Hills (West) - Bella Vista,No,1.0,30,0,30,0,30,30,2022,,,
LIQH440018994,Liquor - hotel licence,2018-04-23 00:00:00,Current,2018-04-23 00:00:00,Trading,Four Points by Sheraton Sydney Central Park,Block 4N 88 Broadway Street,CHIPPENDALE,2008.0,-33.884886,151.199063,Sydney,,Metropolitan,FPSS HOTEL OPERATIONS PTY LTD,Full hotel,"Extended trading authorisation,Minors area authorisation,Right to keep gaming machines",Yes,No,No,Yes,No,Yes,Yes,No,Redfern - Chippendale,No,2.0,0,0,0,0,0,0,2022,,,
LIQH440018989,Liquor - hotel licence,2017-09-11 00:00:00,Current,2017-09-11 00:00:00,Trading,The Governor,9-13 Waterloo Rd,MACQUARIE PARK,2113.0,-33.787767,151.13272,Ryde,,Metropolitan,Christopher Mullarkey,Full hotel,"Extended trading authorisation,Minors area authorisation,Reduced trading hours,Right to keep gaming ",Yes,Yes,No,Yes,No,Yes,Yes,No,Macquarie Park - Marsfield,No,1.0,30,0,30,0,30,30,2022,,,
LIQH440018988,Liquor - hotel licence,2017-08-18 00:00:00,Current,2017-08-18 00:00:00,Trading,Sofitel Sydney Darling Harbour,12 Darling Drive,SYDNEY,2000.0,-33.872658,151.198625,Sydney,,Metropolitan,Darling Harbour Hotel Pty Ltd,Full hotel,"Extended trading authorisation,Minors area authorisation,Residents bar authorisation,Right to keep g",Yes,No,No,Yes,No,Yes,Yes,No,Sydney - Haymarket - The Rocks,No,2.0,0,0,0,0,0,0,2022,,,
LIQH440018965,Liquor - hotel licence,2015-04-28 00:00:00,Current,2015-04-29 00:00:00,Trading,The Prince Kirrawee,531-541 Princes Highway,KIRRAWEE,2232.0,-34.031653,151.075696,Sutherland Shire,,Metropolitan,Edward Whitlam,Full hotel,"Extended trading authorisation,Minors area authorisation,Reduced trading hours,Right to keep gaming ",Yes,Yes,No,Yes,No,Yes,Yes,No,Sutherland - Kirrawee,No,1.0,24,0,24,0,24,24,2022,,,
LIQH440010073,Liquor - hotel licence,2011-09-15 00:00:00,Current,2021-06-27 00:00:00,Trading,Appetito Pizzerie & Bar,100 George St,THE ROCKS,2000.0,-33.858219,151.20939,Sydney,Sydney CBD Precinct,Metropolitan,BAR 100 PTY LTD,Full hotel,"Extended trading authorisation,Minors area authorisation,Reduced trading hours,Right to keep gaming ",Yes,Yes,No,Yes,No,Yes,Yes,No,Sydney - Haymarket - The Rocks,No,2.0,0,0,0,0,0,0,2022,,,
LIQH440010057,Liquor - hotel licence,2010-11-30 00:00:00,Current,2010-12-02 00:00:00,Trading,Bella Vista Hotel,13-15 Lexington Dr,BELLA VISTA,2153.0,-33.736545,150.948546,The Hills Shire,,Metropolitan,Richard Saliba,Full hotel,"Extended trading authorisation,Minors area authorisation,Reduced trading hours,Right to keep gaming ",Yes,Yes,No,Yes,No,Yes,Yes,No,Baulkham Hills (West) - Bella Vista,No,1.0,30,0,30,0,30,30,2022,,,
LIQH440010052,Liquor - hotel licence,2010-10-29 00:00:00,Current,2010-11-12 00:00:00,Trading,Gibraltar Hotel Bowral,Centennial & Boronia Rds,BOWRAL,2576.0,-34.467371,150.413167,Wingecarribee,,Country,John Uliana,Full hotel,"Extended trading authorisation,Minors area authorisation,Reduced trading hours,Right to keep gaming ",Yes,Yes,No,Yes,No,Yes,Yes,No,Bowral,No,1.0,0,0,0,0,0,0,2022,,,
LIQH440010015,Liquor - hotel licence,2008-12-18 00:00:00,Current,2009-05-11 00:00:00,Trading,Scary Canary,469-475 Kent Street,SYDNEY,2000.0,-33.873062,151.20491,Sydney,Sydney CBD Precinct,Metropolitan,Thomas Cooney,Full hotel,"Extended trading authorisation,Minors area authorisation,Reduced trading hours,Right to keep gaming ",Yes,Yes,No,Yes,No,Yes,Yes,No,Sydney - Haymarket - The Rocks,No,2.0,0,0,0,0,0,0,2022,,,
LIQH440010006,Liquor - hotel licence,2008-08-20 00:00:00,Current,2008-12-22 00:00:00,Trading,Pullman at Sydney Olympic Park,"Sydney Olympic Park, Olympic Boulevard",SYDNEY OLYMPIC PARK,2127.0,-33.849006,151.068144,Parramatta,,Metropolitan,Nathan Cox,Full hotel,"Extended trading authorisation,Minors area authorisation,Right to keep gaming machines",Yes,No,No,Yes,No,Yes,Yes,Yes,Homebush Bay - Silverwater,No,1.0,0,0,0,0,0,0,2022,,,
LIQH424013942,Liquor - hotel licence,2005-12-16 00:00:00,Current,2005-12-16 00:00:00,Trading,The Mercure Hotel Sydney,818-820 George St,CHIPPENDALE,2008.0,-33.884251,151.203022,Sydney,,Metropolitan,SCHWARTZ FAMILY CO PTY LTD,Full hotel,"Extended trading authorisation,Minors area authorisation,Right to keep gaming machines",Yes,No,No,Yes,No,Yes,Yes,Yes,Redfern - Chippendale,No,2.0,10,0,10,0,10,10,2022,,,
LIQH424012737,Liquor - hotel licence,2004-05-14 00:00:00,Current,2004-05-14 00:00:00,Trading,Sofitel Sydney Wentworth,61-101 Phillip St,SYDNEY,2000.0,-33.865373,151.210812,Sydney,Sydney CBD Precinct,Metropolitan,ANANKE HOLDINGS PTY LTD,Full hotel,"Extended trading authorisation,Minors area authorisation,Right to keep gaming machines",Yes,No,No,Yes,No,Yes,Yes,Yes,Sydney - Haymarket - The Rocks,No,2.0,0,0,0,0,0,0,2022,,,
LIQH424011858,Liquor - hotel licence,2003-01-07 00:00:00,Current,2003-01-07 00:00:00,Trading,Bank Tavern Kogarah,G & L 1 1-3 Belgrave St,KOGARAH,2217.0,-33.964281,151.132734,Georges River,,Metropolitan,Marlow Investments (No 3) Pty Limited,Full hotel,"Extended trading authorisation,Minors area authorisation,Reduced trading hours,Right to keep gaming ",Yes,Yes,No,Yes,No,Yes,Yes,No,Kogarah,No,2.0,12,12,24,0,24,24,2022,,,
LIQH424009773,Liquor - hotel licence,2002-06-17 00:00:00,Current,2022-10-28 00:00:00,Trading,Drifters Wharf,12 Dane Dr,GOSFORD,2250.0,-33.432095,151.339715,Central Coast,,Metropolitan,THE BROADWATER GROUP PTY LTD,Full hotel,"Extended trading authorisation,Minors area authorisation,Minors functions authorisation,Reduced trad",Yes,Yes,No,Yes,No,Yes,Yes,No,Gosford - Springfield,No,2.0,0,0,0,0,0,0,2022,,,
LIQH424009765,Liquor - hotel licence,2002-06-13 00:00:00,Current,2002-06-13 00:00:00,Trading,Side Bar,"Basement Level, 509 Pitt St & 814 George St",HAYMARKET,2000.0,-33.882329,151.204699,Sydney,Sydney CBD Precinct,Metropolitan,MILLCRIST INVESTMENTS PTY LIMITED,Full hotel,"Extended trading authorisation,Minors area authorisation,Reduced trading hours,Right to keep gaming ",Yes,Yes,No,Yes,No,Yes,Yes,No,Sydney - Haymarket - The Rocks,No,2.0,0,0,0,0,0,0,2022,,,
LIQH424009187,Liquor - hotel licence,2001-08-31 00:00:00,Current,2020-10-21 00:00:00,Trading,Barrio Cellar,Part Basement 53 Martin Pl,SYDNEY,2000.0,-33.868008,151.210901,Sydney,Sydney CBD Precinct,Metropolitan,BARRIO CELLAR PTY LTD,Full hotel,"Extended trading authorisation,Right to keep gaming machines",Yes,No,No,Yes,No,Yes,Yes,Yes,Sydney - Haymarket - The Rocks,No,2.0,0,0,0,0,0,0,2022,,,
LIQH424008586,Liquor - hotel licence,2000-09-29 00:00:00,Current,2000-09-29 00:00:00,Trading,RAMADA HOTEL & SUITES SYDNEY CABRAMATTA,161 Hume Hwy,LANSVALE,2166.0,-33.894534,150.956121,Fairfield,,Metropolitan,LEWIS HOTELS ( LANSVALE ) PTY LTD,Full hotel,"Extended trading authorisation,Minors area authorisation,Right to keep gaming machines",Yes,No,No,Yes,No,Yes,Yes,Yes,Cabramatta - Lansvale,Yes,3.0,25,0,25,0,25,25,2022,,,
LIQH424008188,Liquor - hotel licence,2000-04-13 00:00:00,Current,2000-04-13 00:00:00,Trading,Shelbourne Hotel,200 Sussex Street,SYDNEY,2000.0,-33.871237,151.204102,Sydney,Sydney CBD Precinct,Metropolitan,Jason Powell,Full hotel,"Extended trading authorisation,Minors area authorisation,Right to keep gaming machines",Yes,No,No,Yes,No,Yes,Yes,Yes,Sydney - Haymarket - The Rocks,No,2.0,15,0,15,0,15,15,2022,,,
LIQH424008103,Liquor - hotel licence,2000-03-07 00:00:00,Current,2000-03-07 00:00:00,Trading,Amora Hotel Jamison Sydney,11-19 Jamison St,SYDNEY,2000.0,-33.864558,151.206305,Sydney,Sydney CBD Precinct,Metropolitan,Abhishek Sinha,Full hotel,"Extended trading authorisation,Minors area authorisation,Minors functions authorisation,Right to kee",Yes,No,No,Yes,No,Yes,Yes,Yes,Sydney - Haymarket - The Rocks,No,2.0,0,0,0,0,0,0,2022,,,
LIQH424007933,Liquor - hotel licence,1999-12-06 00:00:00,Current,1999-12-06 00:00:00,Trading,Swissotel Sydney on Market Street,L 8-25 68 Market St,SYDNEY,2000.0,-33.870627,151.207529,Sydney,Sydney CBD Precinct,Metropolitan,David Ross,Full hotel,"Extended trading authorisation,Minors functions authorisation,Right to keep gaming machines",Yes,No,No,Yes,No,Yes,Yes,Yes,Sydney - Haymarket - The Rocks,No,2.0,0,0,0,0,0,0,2022,,,
LIQH424007684,Liquor - hotel licence,1999-08-23 00:00:00,Current,1999-08-23 00:00:00,Trading,The Fullerton Hotel Sydney,1 Martin Pl,SYDNEY,2000.0,-33.867792,151.207748,Sydney,Sydney CBD Precinct,Metropolitan,Andrew Adams,Full hotel,"Extended trading authorisation,Minors area authorisation,Right to keep gaming machines",Yes,No,No,Yes,No,Yes,Yes,Yes,Sydney - Haymarket - The Rocks,No,2.0,0,0,0,0,0,0,2022,,,
LIQH424007645,Liquor - hotel licence,1999-07-21 00:00:00,Current,1999-07-21 00:00:00,Trading,Campbelltown Club Hotel,32 Blaxland Rd,CAMPBELLTOWN,2560.0,-34.05986,150.814386,Campbelltown,,Metropolitan,Gary Bastable,Full hotel,"Extended trading authorisation,Minors area authorisation,Right to keep gaming machines",Yes,No,No,Yes,No,Yes,Yes,Yes,Campbelltown - Woodbine,Yes,3.0,21,7,28,0,28,28,2022,,,
LIQH424007367,Liquor - hotel licence,1999-02-22 00:00:00,Current,1999-02-22 00:00:00,Trading,Pullman Quay Grand Sydney Harbour,61-69 Macquarie St,SYDNEY,2000.0,-33.860834,151.212908,Sydney,Sydney CBD Precinct,Metropolitan,Steven Savic,Full hotel,"Extended trading authorisation,Minors area authorisation,Minors functions authorisation,Right to kee",Yes,No,No,Yes,No,Yes,Yes,Yes,Sydney - Haymarket - The Rocks,No,2.0,0,0,0,0,0,0,2022,,,
LIQH424007293,Liquor - hotel licence,1999-01-13 00:00:00,Current,1999-01-13 00:00:00,Trading,The Macarthur Tavern,Lot 500 Bolger St,CAMPBELLTOWN,2560.0,-34.074279,150.79856,Campbelltown,,Metropolitan,David McCarthy,Full hotel,"Extended trading authorisation,Minors area authorisation,Right to keep gaming machines",Yes,No,No,Yes,No,Yes,Yes,No,Campbelltown - Woodbine,Yes,3.0,25,0,25,0,25,25,2022,,,
LIQH424007134,Liquor - hotel licence,1998-10-29 00:00:00,Current,1998-10-29 00:00:00,Trading,Pontoon Bar,"Cockle Bay Wharf, Darling Park, Tenancy 112 201 Sussex St",SYDNEY,2000.0,-33.87119,151.203012,Sydney,Sydney CBD Precinct,Metropolitan,Roberto Chamorro,Full hotel,"Extended trading authorisation,Minors area authorisation,Right to keep gaming machines",Yes,No,No,Yes,No,Yes,Yes,Yes,Sydney - Haymarket - The Rocks,No,2.0,15,0,15,0,15,12,2022,,,
LIQH424006304,Liquor - hotel licence,1997-07-31 00:00:00,Current,2019-06-27 00:00:00,Trading,Schirrmo's Bar,11-23 Rawson Pl,HAYMARKET,2000.0,-33.881678,151.20532,Sydney,Sydney CBD Precinct,Metropolitan,YHA NSW Ltd,Full hotel,"Extended trading authorisation,Right to keep gaming machines",Yes,No,No,Yes,No,Yes,Yes,No,Sydney - Haymarket - The Rocks,No,2.0,0,0,0,0,0,0,2022,,,
LIQH424006252,Liquor - hotel licence,1997-06-30 00:00:00,Current,2021-06-30 00:00:00,Trading,Stonewall Hotel,175 Oxford St,DARLINGHURST,2010.0,-33.880467,151.216228,Sydney,Sydney CBD Precinct,Metropolitan,Linda Warren,Full hotel,"Extended trading authorisation,Right to keep gaming machines",Yes,No,No,Yes,No,Yes,Yes,Yes,Darlinghurst,No,1.0,15,0,15,0,15,15,2022,,,
LIQH424004084,Liquor - hotel licence,1993-01-18 00:00:00,Current,1993-01-18 00:00:00,Trading,Uncle Buck's Hotel,Unit 4 13 Mount St,MOUNT DRUITT,2770.0,-33.766059,150.824031,Blacktown,,Metropolitan,Donna Longbottom,Full hotel,"Extended trading authorisation,Minors area authorisation,Right to keep gaming machines",Yes,No,No,Yes,No,Yes,Yes,Yes,Mount Druitt - Whalan,Yes,3.0,25,5,30,0,30,30,2022,,,
LIQH424003599,Liquor - hotel licence,1991-12-13 00:00:00,Current,1991-12-13 00:00:00,Trading,Moonee Beach Hotel,Lot 4 Pacific Hwy,MOONEE BEACH,2450.0,-30.20494,153.150007,Coffs Harbour,,Country,Hugh Gillroy,Full hotel,"Extended trading authorisation,Minors area authorisation,Right to keep gaming machines",Yes,No,No,Yes,No,Yes,Yes,Yes,Korora - Emerald Beach,No,1.0,30,0,30,0,30,30,2022,,,
LIQH424003472,Liquor - hotel licence,1991-09-09 00:00:00,Current,1991-09-09 00:00:00,Trading,Quakers Inn,Lot 1 Railway Rd,QUAKERS HILL,2763.0,-33.725551,150.883979,Blacktown,,Metropolitan,Lewis Hotels (Quakers Inn)Pty Ltd,Full hotel,"Extended trading authorisation,Minors area authorisation,Right to keep gaming machines",Yes,No,No,Yes,No,Yes,Yes,Yes,Quakers Hill,No,1.0,15,15,30,0,30,30,2022,,,
LIQH424003447,Liquor - hotel licence,1991-08-19 00:00:00,Current,2022-10-28 00:00:00,Trading,The Globe Hotel,2-19 Sanger St,COROWA,2646.0,-36.000617,146.390853,Federation,,Country,Globe Hotel (Aust) Pty Ltd,Full hotel,"Extended trading authorisation,Minors area authorisation,Right to keep gaming machines",Yes,No,No,Yes,No,Yes,Yes,No,Corowa,Yes,3.0,0,0,0,0,0,0,2022,,,
LIQH424003411,Liquor - hotel licence,1991-08-06 00:00:00,Current,1991-08-06 00:00:00,Trading,Murrumbateman Country Inn,Barton Hwy & Hercules St,MURRUMBATEMAN,2582.0,-34.969102,149.02985,Yass Valley,,Country,Mitchell Quinn,Full hotel,"Extended trading authorisation,Minors area authorisation,Right to keep gaming machines",Yes,No,No,Yes,No,Yes,Yes,Yes,Yass Region,No,1.0,12,0,12,0,12,12,2022,,,
LIQH424002828,Liquor - hotel licence,1990-06-19 00:00:00,Current,1990-06-19 00:00:00,Trading,Park Hyatt Sydney,Campbells Cove 7 Hickson Rd,THE ROCKS,2000.0,-33.855748,151.209404,Sydney,Sydney CBD Precinct,Metropolitan,Samuel Dabinett,Full hotel,"Extended trading authorisation,Minors area authorisation,Right to keep gaming machines",Yes,No,No,Yes,No,Yes,Yes,Yes,Sydney - Haymarket - The Rocks,No,2.0,0,0,0,0,0,0,2022,,,
LIQH424001715,Liquor - hotel licence,1988-11-04 00:00:00,Current,1988-11-04 00:00:00,Trading,Watershed Hotel,Shop 198 & 347 Harbourside Shopping Centre,SYDNEY,2000.0,-33.872326,151.199192,Sydney,,Metropolitan,James Stevenson,Full hotel,"Extended trading authorisation,Minors area authorisation,Right to keep gaming machines",Yes,No,No,Yes,No,Yes,Yes,Yes,Sydney - Haymarket - The Rocks,No,2.0,0,0,0,0,0,0,2022,,,
LIQH424000926,Liquor - hotel licence,1987-12-15 00:00:00,Current,1987-12-15 00:00:00,Trading,Eagle Hawk Hotel,RMB 1542 Federal Hwy,SUTTON,2620.0,-35.202851,149.211506,Queanbeyan-Palerang Regional,,Country,Robert Pastrello,Full hotel,"Extended trading authorisation,Minors area authorisation,Right to keep gaming machines",Yes,No,No,Yes,No,Yes,Yes,No,Queanbeyan Region,No,1.0,19,0,19,0,19,19,2022,,,
LIQH424000551,Liquor - hotel licence,1987-10-08 00:00:00,Current,2021-06-28 00:00:00,Trading,Ibis Styles Canberra Eaglehawk,Eagle Hawk Hill Federal Hwy,Sutton,2620.0,-35.203937,149.208995,Queanbeyan-Palerang Regional,,Country,EAGLEHAWK HOTEL MANAGEMENT PTY LIMITED,Full hotel,"Extended trading authorisation,Right to keep gaming machines",Yes,No,No,Yes,No,Yes,Yes,No,Queanbeyan Region,No,1.0,0,0,0,0,0,0,2022,,,
LIQH400115512,Liquor - hotel licence,1986-06-06 00:00:00,Current,1986-06-06 00:00:00,Trading,The Showground Tavern,59-63 Richmond Rd,BLACKTOWN,2148.0,-33.764158,150.902792,Blacktown,,Metropolitan,Jackson Walker,Full hotel,"Extended trading authorisation,Minors area authorisation,Right to keep gaming machines",Yes,No,No,Yes,No,Yes,Yes,No,Blacktown (North) - Marayong,No,2.0,30,0,30,0,30,30,2022,,,
LIQH400115415,Liquor - hotel licence,1986-05-23 00:00:00,Current,1986-05-23 00:00:00,Trading,Old Bar Tavern,Old Bar & Saltwater Rds,OLD BAR,2430.0,-31.966991,152.56588,Mid-Coast,,Country,Kelly & Co Hotels (Old Bar) Pty Ltd,Full hotel,"Extended trading authorisation,Minors area authorisation,Right to keep gaming machines",Yes,No,No,Yes,No,Yes,Yes,No,Old Bar - Manning Point - Red Head,No,2.0,18,0,18,5,23,15,2022,,,
LIQH400106874,Liquor - hotel licence,1982-12-17 00:00:00,Current,1982-12-17 00:00:00,Trading,Lightning Ridge Hotel Motel,Onyx St,LIGHTNING RIDGE,2834.0,-29.429177,147.974095,Walgett,,Country,John Dowd,Full hotel,"Extended trading authorisation,Minors area authorisation,Right to keep gaming machines",Yes,No,No,Yes,No,Yes,Yes,No,Walgett - Lightning Ridge,Yes,3.0,14,0,14,0,14,14,2022,,,
LIQH400106866,Liquor - hotel licence,1982-10-29 00:00:00,Current,1982-10-29 00:00:00,Trading,Towradgi Beach Hotel,170 Pioneer Rd,FAIRY MEADOW,2519.0,-34.388971,150.904368,Wollongong,,Metropolitan,OSCARS HOTELS PTY LTD,Full hotel,"Extended trading authorisation,Minors area authorisation,Minors functions authorisation,Right to kee",Yes,No,No,Yes,No,Yes,Yes,No,Balgownie - Fairy Meadow,No,2.0,19,4,23,0,23,23,2022,,,
LIQH400106858,Liquor - hotel licence,1982-09-23 00:00:00,Current,1982-09-23 00:00:00,Trading,Bull And Bush Hotel Motel,Lot 12 Ferodale Rd,MEDOWIE,2318.0,-32.740648,151.863032,Port Stephens,,Country,Eileen Clark,Full hotel,"Extended trading authorisation,Minors area authorisation,Right to keep gaming machines",Yes,No,No,Yes,No,Yes,Yes,No,Williamtown - Medowie - Karuah,No,1.0,30,0,30,0,30,30,2022,,,
LIQH400103875,Liquor - hotel licence,1982-07-09 00:00:00,Current,1982-07-09 00:00:00,Trading,Camellia Hotel,132 JAMES RUSE DR,ROSEHILL,2142.0,-33.819873,151.021428,Parramatta,,Metropolitan,Viet Do,Full hotel,"Extended trading authorisation,Minors area authorisation,Right to keep gaming machines",Yes,No,No,Yes,No,Yes,Yes,No,Parramatta - Rosehill,No,2.0,30,0,30,0,30,30,2022,,,
LIQH400106831,Liquor - hotel licence,1982-07-05 00:00:00,Current,1982-07-05 00:00:00,Trading,Imperial Hotel,North Pde & Rooty Hill Rd North,ROOTY HILL,2766.0,-33.771389,150.843352,Blacktown,,Metropolitan,Zachary Jones,Full hotel,"Extended trading authorisation,Minors area authorisation,Right to keep gaming machines",Yes,No,No,Yes,No,Yes,Yes,Yes,Rooty Hill - Minchinbury,No,2.0,30,0,30,0,30,30,2022,,,
LIQH400106793,Liquor - hotel licence,1982-05-21 00:00:00,Current,1982-05-21 00:00:00,Trading,Macquarie Inn Hotel/Motel,Wheelers Lane & Birch Ave,DUBBO,2830.0,-32.250879,148.631305,Dubbo Regional,,Country,Taylor Hind,Full hotel,"Extended trading authorisation,Minors area authorisation,Right to keep gaming machines",Yes,No,No,Yes,No,Yes,Yes,Yes,Dubbo - South,No,2.0,25,0,25,0,25,25,2022,,,
LIQH400106777,Liquor - hotel licence,1981-07-31 00:00:00,Current,1981-07-31 00:00:00,Trading,The Settlers,Hely St,WEST GOSFORD,2250.0,-33.426128,151.32934,Central Coast,,Metropolitan,Adrian Evans,Full hotel,"Extended trading authorisation,Minors area authorisation,Right to keep gaming machines",Yes,No,No,Yes,No,Yes,Yes,No,Gosford - Springfield,No,2.0,20,0,20,0,20,20,2022,,,
LIQH400113943,Liquor - hotel licence,1981-07-31 00:00:00,Current,1981-07-31 00:00:00,Trading,Peach Tree Inn Hotel,Peachtree & Castlereagh Rds,PENRITH,2750.0,-33.744829,150.690001,Penrith,,Metropolitan,Marlow Investments (No 3) Pty Limited,Full hotel,"Extended trading authorisation,Minors area authorisation,Right to keep gaming machines",Yes,No,No,Yes,No,Yes,Yes,Yes,Penrith,Yes,3.0,24,0,24,0,24,24,2022,,,
LIQH400123264,Liquor - hotel licence,1979-08-14 00:00:00,Current,1979-08-14 00:00:00,Trading,Gemini Hotel,201-227 Banna Avenue,GRIFFITH,2680.0,-34.287875,146.048557,Griffith,,Country,NORTH RYDGE PTY LTD,Full hotel,"Extended trading authorisation,Minors area authorisation,Minors functions authorisation,Right to kee",Yes,No,No,Yes,No,Yes,Yes,No,Griffith (NSW),Yes,3.0,29,0,29,0,29,29,2022,,,
LIQH400123205,Liquor - hotel licence,1978-12-11 00:00:00,Current,1978-12-11 00:00:00,Trading,Archer Hotel Nowra,Kalander St,NOWRA,2541.0,-34.888158,150.605296,Shoalhaven,,Country,Dane Koglin,Full hotel,"Extended trading authorisation,Minors area authorisation,Right to keep gaming machines",Yes,No,No,Yes,No,Yes,Yes,No,Nowra,Yes,3.0,15,0,15,0,15,15,2022,,,
LIQH400123191,Liquor - hotel licence,1978-12-06 00:00:00,Current,1978-12-06 00:00:00,Trading,The Dam Hotel,Pacific Hwy & Minnesota Rd,HAMLYN TERRACE,2259.0,-33.261778,151.464216,Central Coast,,Metropolitan,MACDOUGAL (HOTELS) PTY LTD,Full hotel,"Extended trading authorisation,Minors area authorisation,Reduced trading hours,Right to keep gaming ",Yes,Yes,No,Yes,No,Yes,Yes,No,Warnervale - Wadalba,No,1.0,22,0,22,0,22,22,2022,,,
LIQH400123124,Liquor - hotel licence,1974-12-23 00:00:00,Current,1974-12-23 00:00:00,Trading,Mariner's Lodge Hotel,31 Orient St,BATEMANS BAY,2536.0,-35.707925,150.178516,Eurobodalla,,Country,AUSTRALIA RENEWABLE ENERGY INVESTMENT PTY. LTD.,Full hotel,"Extended trading authorisation,Minors area authorisation,Right to keep gaming machines",Yes,No,No,Yes,No,Yes,Yes,Yes,Batemans Bay,Yes,3.0,0,0,0,0,0,0,2022,,,
LIQH400123116,Liquor - hotel licence,1974-12-06 00:00:00,Current,1974-12-06 00:00:00,Trading,Kincumber Hotel,6 Carrak Rd,KINCUMBER,2251.0,-33.469064,151.382749,Central Coast,,Metropolitan,Jayson Lawry,Full hotel,"Extended trading authorisation,Minors area authorisation,Right to keep gaming machines",Yes,No,No,Yes,No,Yes,Yes,No,Kincumber - Picketts Valley,No,2.0,23,0,23,0,23,23,2022,,,
LIQH400106769,Liquor - hotel licence,1973-11-12 00:00:00,Current,1973-11-12 00:00:00,Trading,The Winston,Caroline Chisholm Dr & Junction St,WINSTON HILLS,2153.0,-33.773638,150.971413,The Hills Shire,,Metropolitan,Khim Poudel,Full hotel,"Extended trading authorisation,Minors area authorisation,Reduced trading hours,Right to keep gaming ",Yes,Yes,No,Yes,No,Yes,Yes,No,Winston Hills,No,1.0,15,15,30,0,30,30,2022,,,
LIQH400123086,Liquor - hotel licence,1973-05-11 00:00:00,Current,1973-05-11 00:00:00,Trading,Vineyard Hotel,Windsor & Boundary Rds,VINEYARD,2765.0,-33.655576,150.874104,Hawkesbury,,Metropolitan,Kareena Glover,Full hotel,"Extended trading authorisation,Minors area authorisation,Right to keep gaming machines",Yes,No,No,Yes,No,Yes,Yes,No,Pitt Town - McGraths Hill,No,1.0,30,0,30,0,30,30,2022,,,
LIQH400106750,Liquor - hotel licence,1973-04-12 00:00:00,Current,1973-04-12 00:00:00,Trading,Potts Point Hotel,33-37 Darlinghurst Rd,POTTS POINT,2011.0,-33.873366,151.223741,Sydney,Kings Cross Precinct,Metropolitan,Joel McDermott,Full hotel,"Extended trading authorisation,Minors area authorisation,Right to keep gaming machines",Yes,No,No,Yes,No,Yes,Yes,Yes,Potts Point - Woolloomooloo,No,1.0,25,0,25,0,25,25,2022,,,
LIQH400123078,Liquor - hotel licence,1973-04-09 00:00:00,Current,1973-04-09 00:00:00,Trading,Lockies Hotel,Ingleburn Rd,LEPPINGTON,2179.0,-33.967786,150.814007,Camden,,Metropolitan,Catena Rech,Full hotel,"Extended trading authorisation,Minors area authorisation,Right to keep gaming machines",Yes,No,No,Yes,No,Yes,Yes,Yes,Cobbitty - Leppington,No,1.0,24,6,30,0,30,30,2022,,,
LIQH400123051,Liquor - hotel licence,1972-11-22 00:00:00,Current,1972-11-22 00:00:00,Trading,Plumpton Hotel,556 Richmond Rd,GLENDENNING,2761.0,-33.740309,150.860994,Blacktown,,Metropolitan,Helen McGrath,Full hotel,"Extended trading authorisation,Minors area authorisation,Right to keep gaming machines",Yes,No,No,Yes,No,Yes,Yes,No,Glendenning - Dean Park,No,2.0,20,10,30,0,30,30,2022,,,
LIQH400123035,Liquor - hotel licence,1972-09-28 00:00:00,Current,1972-09-28 00:00:00,Trading,Goonellabah Tavern & Motel,Ballina RD,GOONELLABAH,2480.0,-28.814142,153.338923,Lismore,,Country,G'BAH TAVERN PTY LTD,Full hotel,"Extended trading authorisation,Minors area authorisation,Reduced trading hours,Right to keep gaming ",Yes,Yes,No,Yes,No,Yes,Yes,No,Goonellabah,No,2.0,30,0,30,0,30,30,2022,,,
LIQH400123027,Liquor - hotel licence,1972-07-24 00:00:00,Current,1972-07-24 00:00:00,Trading,Minto Mirage,Surrey St,MINTO,2566.0,-34.027264,150.843363,Campbelltown,,Metropolitan,Kelly Clancy,Full hotel,"Extended trading authorisation,Minors area authorisation,Right to keep gaming machines",Yes,No,No,Yes,No,Yes,Yes,Yes,Minto - St Andrews,No,2.0,19,9,28,0,28,28,2022,,,
LIQH400123000,Liquor - hotel licence,1971-07-27 00:00:00,Current,1971-07-27 00:00:00,Trading,Brolga Hotel Motel,Kingfisher Ave & Brolga Pl,COLEAMBALLY,2707.0,-34.805776,145.881002,Murrumbidgee,,Country,Darren Maddison,Full hotel,"Extended trading authorisation,Minors area authorisation,Right to keep gaming machines",Yes,No,No,Yes,No,Yes,Yes,No,Griffith Region,No,2.0,9,0,9,0,9,9,2022,,,
LIQH400121466,Liquor - hotel licence,1971-03-10 00:00:00,Current,2021-07-07 00:00:00,Trading,The Edge Hotel Motel,Sturt Hwy,BURONGA,2739.0,-34.173856,142.192004,Wentworth,,Country,Jordan Pretscherer,Full hotel,"Extended trading authorisation,Minors area authorisation,Minors functions authorisation,Right to kee",Yes,No,No,Yes,No,Yes,Yes,Yes,Wentworth - Buronga,Yes,3.0,0,0,0,0,0,0,2022,,,
LIQH400106734,Liquor - hotel licence,1970-12-02 00:00:00,Current,2021-07-23 00:00:00,Trading,El Toro Motor Inn,6 HOMEPRIDE AV,WARWICK FARM,2170.0,-33.912323,150.924033,Liverpool,,Metropolitan,Xuan Le,Full hotel,"Extended trading authorisation,Minors area authorisation,Right to keep gaming machines",Yes,No,No,Yes,No,Yes,Yes,Yes,Warwick Farm,Yes,3.0,20,10,30,0,30,30,2022,,,
LIQH400122993,Liquor - hotel licence,1970-05-29 00:00:00,Current,1970-05-29 00:00:00,Trading,Rydalmere Tavern,275-279 Victoria Rd,RYDALMERE,2116.0,-33.811608,151.034394,Parramatta,,Metropolitan,Kai Ying Chen,Full hotel,"Extended trading authorisation,Minors area authorisation,Reduced trading hours,Right to keep gaming ",Yes,Yes,No,Yes,No,Yes,Yes,No,Ermington - Rydalmere,No,1.0,30,0,30,0,30,30,2022,,,
LIQH400122977,Liquor - hotel licence,1968-12-13 00:00:00,Current,1968-12-13 00:00:00,Trading,Westside Hotel Motel,22-30 Whylandra St,DUBBO,2830.0,-32.249558,148.592647,Dubbo Regional,,Country,Rodney Webster,Full hotel,"Extended trading authorisation,Minors area authorisation,Right to keep gaming machines",Yes,No,No,Yes,No,Yes,Yes,Yes,Dubbo - West,No,2.0,24,0,24,0,24,24,2022,,,
LIQH400122942,Liquor - hotel licence,1967-11-10 00:00:00,Current,2022-11-15 00:00:00,Trading,Jindera Hotel,Urana St,JINDERA,2642.0,-35.956974,146.890417,Greater Hume Shire,,Country,BROLAN THREE PTY LIMITED,Full hotel,"Extended trading authorisation,Minors area authorisation,Right to keep gaming machines",Yes,No,No,Yes,No,Yes,Yes,No,Albury Region,No,1.0,10,0,10,0,10,10,2022,,,
LIQH400115490,Liquor - hotel licence,1967-10-09 00:00:00,Current,2015-06-30 00:00:00,Trading,Fairmont Resort,1 Sublime Point Rd,LEURA,2780.0,-33.721967,150.349852,Blue Mountains,,Metropolitan,SCHWARTZ FAMILY CO PTY LTD,Full hotel,"Extended trading authorisation,Minors area authorisation,Reduced trading hours,Right to keep gaming ",Yes,Yes,No,Yes,No,Yes,Yes,No,Katoomba - Leura,No,2.0,0,0,0,0,0,0,2022,,,
LIQH400106424,Liquor - hotel licence,1966-12-12 00:00:00,Current,1966-12-12 00:00:00,Trading,The Flynn,61-101 Phillip St,SYDNEY,2000.0,-33.865373,151.210812,Sydney,Sydney CBD Precinct,Metropolitan,WALL STREET BAR PTY LIMITED,Full hotel,"Extended trading authorisation,Minors area authorisation,Right to keep gaming machines",Yes,No,No,Yes,No,Yes,Yes,No,Sydney - Haymarket - The Rocks,No,2.0,15,0,15,0,15,15,2022,,,
LIQH400104782,Liquor - hotel licence,1966-09-14 00:00:00,Current,1966-09-14 00:00:00,Trading,Prospect Hotel,Great Western Highway,PROSPECT,2148.0,-33.805338,150.926267,Blacktown,,Metropolitan,Fabian Arias,Full hotel,"Extended trading authorisation,Minors area authorisation,Right to keep gaming machines",Yes,No,No,Yes,No,Yes,Yes,Yes,Seven Hills - Toongabbie,No,2.0,28,2,30,0,30,21,2022,,,
LIQH400101023,Liquor - hotel licence,1966-08-07 00:00:00,Current,2021-07-07 00:00:00,Trading,Captain Cook Hotel,1114 Botany Rd,BOTANY,2019.0,-33.944438,151.196011,Bayside,,Metropolitan,Pranab Mahat,Full hotel,"Extended trading authorisation,Minors area authorisation,Right to keep gaming machines",Yes,No,No,Yes,No,Yes,Yes,Yes,Botany,No,1.0,30,0,30,0,30,30,2022,,,
LIQH400111096,Liquor - hotel licence,1965-07-02 00:00:00,Current,1965-07-02 00:00:00,Trading,Perisher Manor,Central T-bar Area,PERISHER VALLEY,2624.0,-36.405006,148.409026,Snowy Monaro Regional,,Country,Damian Breitfuss,Full hotel,"Extended trading authorisation,Minors area authorisation,Right to keep gaming machines",Yes,No,No,Yes,No,Yes,Yes,Yes,Jindabyne - Berridale,No,1.0,0,0,0,0,0,0,2022,,,
LIQH400100884,Liquor - hotel licence,1964-05-09 00:00:00,Current,1964-05-09 00:00:00,Trading,Longyard Hotel,Tamworth Country Centre New England Hwy,HILLVUE,2340.0,-31.12729,150.922718,Tamworth Regional,,Country,Benjamin Moore,Full hotel,"Extended trading authorisation,Minors area authorisation,Right to keep gaming machines",Yes,No,No,Yes,No,Yes,Yes,No,Tamworth - East,No,2.0,25,0,25,0,25,25,2022,,,
LIQH400110871,Liquor - hotel licence,1963-08-06 00:00:00,Current,1963-08-06 00:00:00,Trading,Kosciuszko Chalet,Charlotte Pass Village Kosciuszko Rd,PERISHER VALLEY,2624.0,-36.434478,148.332635,Snowy Monaro Regional,,Country,Lachlan GRAY,Full hotel,"Extended trading authorisation,Minors area authorisation,Right to keep gaming machines",Yes,No,No,Yes,No,Yes,Yes,Yes,Jindabyne - Berridale,No,1.0,0,0,0,0,0,0,2022,,,
LIQH400118872,Liquor - hotel licence,1962-09-24 00:00:00,Current,1962-09-24 00:00:00,Trading,Gearins Hotel,273 Great Western Hwy,KATOOMBA,2780.0,-33.708402,150.301197,Blue Mountains,,Metropolitan,Garry Wilson,Full hotel,"Extended trading authorisation,Minors area authorisation,Minors functions authorisation,Right to kee",Yes,No,No,Yes,No,Yes,Yes,Yes,Katoomba - Leura,No,2.0,0,0,0,0,0,0,2022,,,
LIQH400121407,Liquor - hotel licence,1962-08-15 00:00:00,Current,2022-11-02 00:00:00,Trading,Graman Hotel,Yetman Rd,GRAMAN,2360.0,-29.469233,150.928176,Inverell,,Country,Justyn WRIGHT,Full hotel,"Extended trading authorisation,Minors area authorisation,Reduced trading hours,Right to keep gaming ",Yes,Yes,No,Yes,No,Yes,Yes,Yes,Inverell Region - East,No,2.0,0,0,0,0,0,0,2022,,,
LIQH400121873,Liquor - hotel licence,1962-08-02 00:00:00,Current,1962-08-02 00:00:00,Trading,Archibald Investments (Aust) Pty Ltd,1349 Bells Line of Road,KURRAJONG HEIGHTS,2758.0,-33.5237,150.627854,Hawkesbury,,Metropolitan,James Grasso,Full hotel,"Extended trading authorisation,Minors area authorisation,Right to keep gaming machines",Yes,No,No,Yes,No,Yes,Yes,No,Kurrajong Heights - Ebenezer,No,1.0,9,0,9,0,9,9,2022,,,
LIQH400120079,Liquor - hotel licence,1962-07-26 00:00:00,Current,2015-07-02 00:00:00,Trading,Albion Hotel,2 John St,SINGLETON,2330.0,-32.570416,151.163946,Singleton,,Country,Jamie Mcnamara,Full hotel,"Extended trading authorisation,Minors area authorisation,Reduced trading hours,Right to keep gaming ",Yes,Yes,No,Yes,No,Yes,Yes,No,Singleton,No,2.0,8,0,8,0,8,8,2022,,,
LIQH400120923,Liquor - hotel licence,1962-07-18 00:00:00,Current,2022-01-13 00:00:00,Trading,Wahlburgers,East Circular Quay Shops 17 & 18,SYDNEY,2000.0,-33.860361,151.21294,Sydney,Sydney CBD Precinct,Metropolitan,WB OPERATIONS PTY LTD,Full hotel,"Extended trading authorisation,Minors area authorisation,Right to keep gaming machines",Yes,No,No,Yes,No,Yes,Yes,No,Sydney - Haymarket - The Rocks,No,2.0,0,0,0,0,0,0,2022,,,
LIQH400119968,Liquor - hotel licence,1962-07-13 00:00:00,Current,1962-07-13 00:00:00,Trading,Greenwell Point Hotel,Greenwell Point Rd,GREENWELL POINT,2540.0,-34.907773,150.733075,Shoalhaven,,Country,GREENWELL PUB PTY LTD,Full hotel,"Extended trading authorisation,Minors area authorisation,Right to keep gaming machines",Yes,No,No,Yes,No,Yes,Yes,Yes,Culburra Beach,Yes,3.0,15,0,15,0,15,15,2022,,,
LIQH400121431,Liquor - hotel licence,1962-07-10 00:00:00,Current,1962-07-10 00:00:00,Trading,Royal Hotel,Hope St,WARIALDA,2402.0,-29.541383,150.576323,Gwydir,,Country,Neil Parker,Full hotel,"Extended trading authorisation,Minors area authorisation,Right to keep gaming machines",Yes,No,No,Yes,No,Yes,Yes,Yes,Inverell Region - West,No,2.0,3,0,3,0,3,3,2022,,,
LIQH400121024,Liquor - hotel licence,1962-07-03 00:00:00,Current,1962-07-03 00:00:00,Trading,Public House Albury,491 Dean St,ALBURY,2640.0,-36.081403,146.918783,Albury,,Country,Jodie Tiernan,Full hotel,"Extended trading authorisation,Right to keep gaming machines",Yes,No,No,Yes,No,Yes,Yes,Yes,Albury - South,No,2.0,0,0,0,0,0,0,2022,,,
LIQH400121237,Liquor - hotel licence,1962-06-26 00:00:00,Current,1962-06-26 00:00:00,Trading,Union Club Hotel,Baylis St,WAGGA WAGGA,2650.0,-35.114168,147.369288,Wagga Wagga,,Country,Patrick Mcredmond,Full hotel,"Extended trading authorisation,Minors area authorisation,Right to keep gaming machines",Yes,No,No,Yes,No,Yes,Yes,No,Wagga Wagga - West,Yes,3.0,21,0,21,0,21,21,2022,,,
LIQH400122209,Liquor - hotel licence,1962-06-25 00:00:00,Current,2020-10-21 00:00:00,Trading,Hotel Illawarra,160-164 Keira St,WOLLONGONG,2500.0,-34.423183,150.893128,Wollongong,,Metropolitan,Ryan Aitchison,Full hotel,"Extended trading authorisation,Minors area authorisation,Right to keep gaming machines",Yes,No,No,Yes,No,Yes,Yes,Yes,Wollongong - East,No,2.0,19,0,19,0,19,19,2022,,,
LIQH400119232,Liquor - hotel licence,1962-05-29 00:00:00,Current,1962-05-29 00:00:00,Trading,Finnian's Irish Tavern,Lot 1 Gordon St,PORT MACQUARIE,2444.0,-31.434168,152.907601,Port Macquarie-Hastings,,Country,FINNIANS PTY LTD,Full hotel,"Extended trading authorisation,Minors area authorisation,Reduced trading hours,Right to keep gaming ",Yes,Yes,No,Yes,No,Yes,Yes,No,Port Macquarie - East,No,1.0,15,0,15,0,15,15,2022,,,
LIQH400118805,Liquor - hotel licence,1962-05-25 00:00:00,Current,1962-05-25 00:00:00,Trading,Australian Arms Hotel,351 High St,PENRITH,2750.0,-33.753629,150.700364,Penrith,,Metropolitan,AUSTRALIAN ARMS OPERATIONS PTY LTD,Full hotel,"Extended trading authorisation,Minors area authorisation,Right to keep gaming machines",Yes,No,No,Yes,No,Yes,Yes,Yes,Penrith,Yes,3.0,15,0,15,0,15,15,2022,,,
LIQH400119755,Liquor - hotel licence,1962-05-24 00:00:00,Current,2016-06-29 00:00:00,Trading,Capertee Royal Hotel,Castlereagh Hwy,CAPERTEE,2846.0,-33.145588,149.981988,Lithgow,,Country,GRASSO & SMITH PTY LTD,Full hotel,"Extended trading authorisation,Minors area authorisation,Right to keep gaming machines",Yes,No,No,Yes,No,Yes,Yes,No,Lithgow Region,No,2.0,2,0,2,0,2,2,2022,,,
LIQH400121008,Liquor - hotel licence,1962-05-01 00:00:00,Current,1962-05-01 00:00:00,Trading,Astor Hotel,Station Pl,WAGGA WAGGA,2650.0,-35.119126,147.369072,Wagga Wagga,,Country,ALAN WILLIAMS,Full hotel,"Extended trading authorisation,Minors area authorisation,Right to keep gaming machines",Yes,No,No,Yes,No,Yes,Yes,No,Wagga Wagga - West,Yes,3.0,19,0,19,0,19,19,2022,,,
LIQH400121296,Liquor - hotel licence,1962-04-16 00:00:00,Current,2019-06-27 00:00:00,Trading,Commercial Hotel,Meridian St,WALCHA,2354.0,-30.983761,151.588438,Walcha,,Country,Kristian Schmidt,Full hotel,"Extended trading authorisation,Minors area authorisation,Reduced trading hours,Right to keep gaming ",Yes,Yes,No,Yes,No,Yes,Yes,No,Walcha,No,2.0,0,0,0,0,0,0,2022,,,
LIQH400118783,Liquor - hotel licence,1962-04-03 00:00:00,Current,1962-04-03 00:00:00,Trading,Cross Roads Hotel,Newell Hwy,TOMINGLEY,2869.0,-32.622623,148.211195,Narromine,,Country,Darryl Kennaugh,Full hotel,"Extended trading authorisation,Minors area authorisation,Right to keep gaming machines",Yes,No,No,Yes,No,Yes,Yes,Yes,Narromine,No,2.0,4,0,4,0,4,4,2022,,,
LIQH400118961,Liquor - hotel licence,1962-04-02 00:00:00,Current,1962-04-02 00:00:00,Trading,New Ivanhoe Hotel,231 Great Western Hwy,BLACKHEATH,2785.0,-33.636022,150.285263,Blue Mountains,,Metropolitan,Jacob Toivonen,Full hotel,"Extended trading authorisation,Right to keep gaming machines",Yes,No,No,Yes,No,Yes,Yes,No,Blackheath - Megalong Valley,No,1.0,8,0,8,0,8,8,2022,,,
LIQH400118902,Liquor - hotel licence,1962-03-26 00:00:00,Current,1962-03-26 00:00:00,Trading,Katoomba Hotel,15 Parke St,KATOOMBA,2780.0,-33.711787,150.309874,Blue Mountains,,Metropolitan,Jane Blackburn,Full hotel,"Extended trading authorisation,Minors area authorisation,Right to keep gaming machines",Yes,No,No,Yes,No,Yes,Yes,Yes,Katoomba - Leura,No,2.0,14,0,14,0,14,14,2022,,,
LIQH400119046,Liquor - hotel licence,1962-03-12 00:00:00,Current,1962-03-12 00:00:00,Trading,St Marys Hotel,37 Queen St,ST MARYS,2760.0,-33.763296,150.774219,Penrith,,Metropolitan,Gregory Slawinski,Full hotel,"Extended trading authorisation,Minors area authorisation,Right to keep gaming machines",Yes,No,No,Yes,No,Yes,Yes,No,St Marys - North St Marys,Yes,3.0,22,8,30,0,30,29,2022,,,
LIQH400122357,Liquor - hotel licence,1962-03-02 00:00:00,Current,2021-06-30 00:00:00,Trading,Five Islands Hotel,Five Islands Rd & Lake Ave,CRINGILA,2502.0,-34.466136,150.87274,Wollongong,,Metropolitan,Luke Anderson,Full hotel,"Extended trading authorisation,Minors area authorisation,Right to keep gaming machines",Yes,No,No,Yes,No,Yes,Yes,Yes,Berkeley - Lake Heights - Cringila,Yes,3.0,22,0,22,0,22,22,2022,,,
LIQH400118619,Liquor - hotel licence,1962-02-28 00:00:00,Current,1962-02-28 00:00:00,Trading,Cambridge Hotel,153 Clarinda St,PARKES,2870.0,-33.138621,148.175533,Parkes,,Country,Trent Usher,Full hotel,"Extended trading authorisation,Minors area authorisation,Right to keep gaming machines",Yes,No,No,Yes,No,Yes,Yes,Yes,Parkes (NSW),Yes,3.0,12,0,12,0,12,12,2022,,,
LIQH400118716,Liquor - hotel licence,1962-02-28 00:00:00,Current,1962-02-28 00:00:00,Trading,Star Hotel,358 Clarinda St,PARKES,2870.0,-33.133296,148.173658,Parkes,,Country,Terrence Rowney,Full hotel,"Extended trading authorisation,Minors area authorisation,Right to keep gaming machines",Yes,No,No,Yes,No,Yes,Yes,No,Parkes (NSW),Yes,3.0,0,0,0,0,0,0,2022,,,
LIQH400119348,Liquor - hotel licence,1962-02-23 00:00:00,Current,1962-02-23 00:00:00,Trading,Queanbeyan Hotel,59 Crawford St,QUEANBEYAN,2620.0,-35.34578,149.228212,Queanbeyan-Palerang Regional,,Country,Mathew Griffin,Full hotel,"Extended trading authorisation,Minors area authorisation,Right to keep gaming machines",Yes,No,No,Yes,No,Yes,Yes,No,Queanbeyan,No,2.0,17,0,17,0,17,17,2022,,,
LIQH400119410,Liquor - hotel licence,1962-02-16 00:00:00,Current,1962-02-16 00:00:00,Trading,Commercial Hotel,Single St,WERRIS CREEK,2341.0,-31.352108,150.647125,Liverpool Plains,,Country,Terrence Richmond,Full hotel,"Extended trading authorisation,Minors area authorisation,Right to keep gaming machines",Yes,No,No,Yes,No,Yes,Yes,No,Quirindi,Yes,3.0,0,0,0,0,0,0,2022,,,
LIQH400116233,Liquor - hotel licence,1962-02-08 00:00:00,Current,1962-02-08 00:00:00,Trading,Lawson Park Tavern,1 Church St,MUDGEE,2850.0,-32.590193,149.589228,Mid-Western Regional,,Country,Anthony Brown,Full hotel,"Extended trading authorisation,Minors area authorisation,Right to keep gaming machines",Yes,No,No,Yes,No,Yes,Yes,No,Mudgee,No,2.0,15,0,15,0,15,15,2022,,,
LIQH400120702,Liquor - hotel licence,1961-12-21 00:00:00,Current,1961-12-21 00:00:00,Trading,Khancoban Alpine Inn,1399 Alpine Way,KHANCOBAN,2642.0,-36.218809,148.125779,Snowy Valleys,,Country,STEVEN JENKINS,Full hotel,"Extended trading authorisation,Minors area authorisation,Right to keep gaming machines",Yes,No,No,Yes,No,Yes,Yes,No,Tumbarumba,No,2.0,0,0,0,0,0,0,2022,,,
LIQH400120400,Liquor - hotel licence,1961-11-10 00:00:00,Current,1961-11-10 00:00:00,Trading,Commercial Hotel,Yapunyah St,BARELLAN,2665.0,-34.285403,146.574929,Narrandera,,Country,Matthew Snaith,Full hotel,"Extended trading authorisation,Minors area authorisation,Right to keep gaming machines",Yes,No,No,Yes,No,Yes,Yes,No,Narrandera,Yes,3.0,0,0,0,0,0,0,2022,,,
LIQH400119070,Liquor - hotel licence,1961-11-06 00:00:00,Current,1961-11-06 00:00:00,Trading,Wagon Wheel Hotel,Great Western Hwy,ST MARYS,2760.0,-33.769342,150.770095,Penrith,,Metropolitan,Gavin Doran,Full hotel,"Extended trading authorisation,Minors area authorisation,Right to keep gaming machines",Yes,No,No,Yes,No,Yes,Yes,No,St Marys - North St Marys,Yes,3.0,25,0,25,0,25,25,2022,,,
LIQH400121849,Liquor - hotel licence,1961-10-26 00:00:00,Current,1961-10-26 00:00:00,Trading,R.G. McGee's,193 Windsor St,RICHMOND,2753.0,-33.596894,150.752037,Hawkesbury,,Metropolitan,James Key,Full hotel,"Extended trading authorisation,Minors area authorisation,Right to keep gaming machines",Yes,No,No,Yes,No,Yes,Yes,No,Richmond - Clarendon,No,2.0,17,0,17,0,17,17,2022,,,
LIQH400119054,Liquor - hotel licence,1961-10-16 00:00:00,Current,2020-10-21 00:00:00,Trading,Tattersalls Hotel Penrith,Station St & Union Lane,PENRITH,2750.0,-33.75346,150.694712,Penrith,,Metropolitan,Amanda Grant,Full hotel,"Extended trading authorisation,Minors area authorisation,Minors functions authorisation,Right to kee",Yes,No,No,Yes,No,Yes,Yes,No,Penrith,Yes,3.0,15,0,15,0,15,15,2022,,,
LIQH400120567,Liquor - hotel licence,1961-10-04 00:00:00,Current,1961-10-04 00:00:00,Trading,Tenterfield Tavern,378 Rouse St,TENTERFIELD,2372.0,-29.050036,152.019458,Tenterfield,,Country,Tara Kelly,Full hotel,"Extended trading authorisation,Minors area authorisation,Right to keep gaming machines",Yes,No,No,Yes,No,Yes,Yes,No,Tenterfield,Yes,3.0,12,0,12,0,12,12,2022,,,
LIQH400119089,Liquor - hotel licence,1961-09-11 00:00:00,Current,2016-06-29 00:00:00,Trading,Wallacia Hotel,Mulgoa Road,WALLACIA,2745.0,-33.864831,150.641146,Penrith,,Metropolitan,YOOROOGA HOLDINGS PTY LTD,Full hotel,"Extended trading authorisation,Minors area authorisation,Right to keep gaming machines",Yes,No,No,Yes,No,Yes,Yes,No,Mulgoa - Luddenham - Orchard Hills,No,1.0,21,0,21,0,21,21,2022,,,
LIQH400118600,Liquor - hotel licence,1961-09-07 00:00:00,Current,2021-07-02 00:00:00,Trading,Broadway Hotel,277 Clarinda St,PARKES,2870.0,-33.134599,148.174688,Parkes,,Country,Michael Rowney,Full hotel,"Extended trading authorisation,Minors area authorisation,Right to keep gaming machines",Yes,No,No,Yes,No,Yes,Yes,Yes,Parkes (NSW),Yes,3.0,9,0,9,0,9,9,2022,,,
LIQH400118708,Liquor - hotel licence,1961-09-07 00:00:00,Current,1961-09-07 00:00:00,Trading,Royal Hotel,217 Clarinda St,PARKES,2870.0,-33.136542,148.174834,Parkes,,Country,GRACE #1 PTY LIMITED 625 520 774,Full hotel,"Extended trading authorisation,Minors area authorisation,Right to keep gaming machines",Yes,No,No,Yes,No,Yes,Yes,Yes,Parkes (NSW),Yes,3.0,0,0,0,0,0,0,2022,,,
LIQH400121881,Liquor - hotel licence,1961-08-17 00:00:00,Current,1961-08-17 00:00:00,Trading,Macquarie Arms Hotel,99 George St,WINDSOR,2756.0,-33.604943,150.822974,Hawkesbury,,Metropolitan,Michael Patterson,Full hotel,"Extended trading authorisation,Minors area authorisation,Right to keep gaming machines",Yes,No,No,Yes,No,Yes,Yes,No,Windsor - Bligh Park,No,2.0,19,0,19,0,19,19,2022,,,
LIQH400120125,Liquor - hotel licence,1961-07-27 00:00:00,Current,1961-07-27 00:00:00,Trading,Imperial Hotel,183 John St,SINGLETON,2330.0,-32.562705,151.170129,Singleton,,Country,Cherie Beasley,Full hotel,"Extended trading authorisation,Minors area authorisation,Reduced trading hours,Right to keep gaming ",Yes,Yes,No,Yes,No,Yes,Yes,No,Singleton,No,2.0,23,0,23,0,23,23,2022,,,
LIQH400119534,Liquor - hotel licence,1961-07-14 00:00:00,Current,1961-07-14 00:00:00,Trading,Junction Inn Hotel,Junction Inn Hotel 2 William St,RAYMOND TERRACE,2324.0,-32.76081,151.741563,Port Stephens,,Country,Adam Wedmaier,Full hotel,"Extended trading authorisation,Minors area authorisation,Right to keep gaming machines",Yes,No,No,Yes,No,Yes,Yes,No,Raymond Terrace,Yes,3.0,16,0,16,0,16,16,2022,,,
LIQH400115547,Liquor - hotel licence,1961-06-26 00:00:00,Current,1961-06-26 00:00:00,Trading,Manning River Hotel,20 Oxley St,TAREE,2430.0,-31.903822,152.476478,Mid-Coast,,Country,JESSE OVERVLIET,Full hotel,"Extended trading authorisation,Minors area authorisation,Right to keep gaming machines",Yes,No,No,Yes,No,Yes,Yes,No,Taree,Yes,3.0,20,0,20,0,20,20,2022,,,
LIQH400111037,Liquor - hotel licence,1961-06-16 00:00:00,Current,1961-06-16 00:00:00,Trading,Banjo Paterson Inn,Kosciuszko Rd & Thredbo Tce,JINDABYNE,2627.0,-36.416683,148.624393,Snowy Monaro Regional,,Country,Cameron McKid,Full hotel,"Extended trading authorisation,Minors area authorisation,Right to keep gaming machines",Yes,No,No,Yes,No,Yes,Yes,Yes,Jindabyne - Berridale,No,1.0,10,0,10,0,10,10,2022,,,
LIQH400120990,Liquor - hotel licence,1961-05-24 00:00:00,Current,1961-05-24 00:00:00,Trading,The Pub,Cnr Dampier St & Gunnedah Rd,TAMINDA,2340.0,-31.098341,150.896817,Tamworth Regional,,Country,Tierzah Douglas,Full hotel,"Extended trading authorisation,Minors area authorisation,Right to keep gaming machines",Yes,No,No,Yes,No,Yes,Yes,No,Tamworth - West,Yes,3.0,28,0,28,0,28,28,2022,,,
LIQH400121261,Liquor - hotel licence,1961-05-23 00:00:00,Current,1961-05-23 00:00:00,Trading,William Farrer Hotel,127 Edward St,WAGGA WAGGA,2650.0,-35.118407,147.367843,Wagga Wagga,,Country,HARVEST PUB OPERATIONS PTY LTD,Full hotel,"Extended trading authorisation,Minors area authorisation,Right to keep gaming machines",Yes,No,No,Yes,No,Yes,Yes,No,Wagga Wagga - West,Yes,3.0,23,0,23,0,23,23,2022,,,
LIQH400118864,Liquor - hotel licence,1961-05-22 00:00:00,Current,1961-05-22 00:00:00,Trading,Gardners Inn Hotel,255 Great Western Hwy,BLACKHEATH,2785.0,-33.634328,150.285179,Blue Mountains,,Metropolitan,Anthony De Bono,Full hotel,"Extended trading authorisation,Minors area authorisation,Right to keep gaming machines",Yes,No,No,Yes,No,Yes,Yes,Yes,Blackheath - Megalong Valley,No,1.0,14,0,14,0,14,14,2022,,,
LIQH400119305,Liquor - hotel licence,1961-05-22 00:00:00,Current,1961-05-22 00:00:00,Trading,Tea Gardens Hotel,Marine Dr,TEA GARDENS,2324.0,-32.667278,152.161124,Mid-Coast,,Country,Wayne Patterson,Full hotel,"Extended trading authorisation,Minors area authorisation,Right to keep gaming machines",Yes,No,No,Yes,No,Yes,Yes,No,Tea Gardens - Hawks Nest,No,2.0,15,0,15,0,15,15,2022,,,
LIQH400121504,Liquor - hotel licence,1961-05-12 00:00:00,Current,1961-05-12 00:00:00,Trading,Nevertire Hotel,Mitchell Hwy,NEVERTIRE,2826.0,-31.837111,147.716957,Warren,,Country,Dympna Lawler,Full hotel,"Extended trading authorisation,Minors area authorisation,Right to keep gaming machines",Yes,No,No,Yes,No,Yes,Yes,Yes,Nyngan - Warren,Yes,3.0,0,0,0,0,0,0,2022,,,
LIQH400118848,Liquor - hotel licence,1961-05-05 00:00:00,Current,1961-05-05 00:00:00,Trading,Colyton Hotel,Great Western Hwy & Hewitt St,COLYTON,2760.0,-33.77775,150.801734,Penrith,,Metropolitan,Mark Bylsma,Full hotel,"Extended trading authorisation,Minors area authorisation,Right to keep gaming machines",Yes,No,No,Yes,No,Yes,Yes,Yes,Colyton - Oxley Park,No,2.0,15,15,30,0,30,30,2022,,,
LIQH400122233,Liquor - hotel licence,1961-05-03 00:00:00,Current,1961-05-03 00:00:00,Trading,Unanderra Hotel,27 Central Rd,UNANDERRA,2526.0,-34.45297,150.844829,Wollongong,,Metropolitan,Tomas Cavill,Full hotel,"Extended trading authorisation,Minors area authorisation,Right to keep gaming machines",Yes,No,No,Yes,No,Yes,Yes,No,Unanderra - Mount Kembla,No,2.0,26,0,26,0,26,26,2022,,,
LIQH400112688,Liquor - hotel licence,1961-04-11 00:00:00,Current,1961-04-11 00:00:00,Trading,Criterion Hotel,72 Goulburn St,CROOKWELL,2583.0,-34.457146,149.469806,Upper Lachlan Shire,,Country,David James,Full hotel,"Extended trading authorisation,Minors area authorisation,Right to keep gaming machines",Yes,No,No,Yes,No,Yes,Yes,No,Goulburn Region,No,1.0,0,0,0,0,0,0,2022,,,
LIQH400120524,Liquor - hotel licence,1961-04-07 00:00:00,Current,2021-07-16 00:00:00,Trading,Terminus Hotel,Crowley St,TEMORA,2666.0,-34.447561,147.530685,Temora,,Country,TAYLORS NSW PTY LTD,Full hotel,"Extended trading authorisation,Minors area authorisation,Right to keep gaming machines",Yes,No,No,Yes,No,Yes,Yes,No,Temora,No,2.0,0,0,0,0,0,0,2022,,,
LIQH400121776,Liquor - hotel licence,1961-02-07 00:00:00,Current,1961-02-07 00:00:00,Trading,Gol Gol Hotel,Sturt Hwy,GOL GOL,2738.0,-34.180815,142.22403,Wentworth,,Country,Peter Pretscherer,Full hotel,"Extended trading authorisation,Minors area authorisation,Right to keep gaming machines",Yes,No,No,Yes,No,Yes,Yes,Yes,Wentworth - Buronga,Yes,3.0,30,0,30,0,30,30,2022,,,
LIQH400118627,Liquor - hotel licence,1960-12-22 00:00:00,Current,1960-12-22 00:00:00,Trading,Coachman Hotel,Cnr Welcome & Dalton Sts,PARKES,2870.0,-33.137615,148.174201,Parkes,,Country,MCPICKELWAY PARKES PTY LIMITED,Full hotel,"Extended trading authorisation,Minors area authorisation,Right to keep gaming machines",Yes,No,No,Yes,No,Yes,Yes,Yes,Parkes (NSW),Yes,3.0,15,0,15,0,15,15,2022,,,
LIQH400117965,Liquor - hotel licence,1960-12-21 00:00:00,Current,1960-12-21 00:00:00,Trading,Iron Horse Inn Hotel,329 Main Rd,CARDIFF,2285.0,-32.939663,151.659753,Lake Macquarie,,Metropolitan,Clarissa Mitchell,Full hotel,"Extended trading authorisation,Minors area authorisation,Right to keep gaming machines",Yes,No,No,Yes,No,Yes,Yes,No,Glendale - Cardiff - Hillsborough,No,2.0,23,0,23,0,23,23,2022,,,
LIQH400118287,Liquor - hotel licence,1960-12-12 00:00:00,Current,2015-06-28 00:00:00,Trading,Australian Hotel Nyngan,42 Nymagee St,NYNGAN,2825.0,-31.560145,147.194498,Bogan,,Country,Glen Berwick,Full hotel,"Extended trading authorisation,Minors area authorisation,Right to keep gaming machines",Yes,No,No,Yes,No,Yes,Yes,No,Nyngan - Warren,Yes,3.0,0,0,0,0,0,0,2022,,,
LIQH400117256,Liquor - hotel licence,1960-11-29 00:00:00,Current,1960-11-29 00:00:00,Trading,Clarendon Hotel,347 Hunter St,NEWCASTLE,2300.0,-32.927095,151.773164,Newcastle,,Metropolitan,Marc CAPPELLACCI,Full hotel,"Extended trading authorisation,Minors area authorisation,Right to keep gaming machines",Yes,No,No,Yes,No,Yes,Yes,No,Newcastle - Cooks Hill,No,1.0,15,0,15,0,15,15,2022,,,
LIQH400109202,Liquor - hotel licence,1960-11-24 00:00:00,Current,1960-11-24 00:00:00,Trading,Park Beach Hotel,90 Ocean Pde,COFFS HARBOUR,2450.0,-30.286712,153.139015,Coffs Harbour,,Country,3 BOYS PTY LTD,Full hotel,"Extended trading authorisation,Minors area authorisation,Right to keep gaming machines",Yes,No,No,Yes,No,Yes,Yes,No,Coffs Harbour - North,No,2.0,15,0,15,5,20,15,2022,,,
LIQH400117558,Liquor - hotel licence,1960-11-17 00:00:00,Current,1960-11-17 00:00:00,Trading,Gateshead Tavern-Motel,9 Pacific Hwy,GATESHEAD,2290.0,-32.98796,151.692325,Lake Macquarie,,Metropolitan,HUNTER HOTEL GROUP PTY. LTD.,Full hotel,"Extended trading authorisation,Minors area authorisation,Right to keep gaming machines",Yes,No,No,Yes,No,Yes,Yes,No,Charlestown - Dudley,No,1.0,24,0,24,0,24,24,2022,,,
LIQH400121865,Liquor - hotel licence,1960-10-07 00:00:00,Current,1960-10-07 00:00:00,Trading,Richmond Inn Hotel,East Market Street & March Street,RICHMOND,2753.0,-33.599456,150.752015,Hawkesbury,,Metropolitan,Sung Yeon YOON,Full hotel,"Extended trading authorisation,Minors area authorisation,Right to keep gaming machines",Yes,No,No,Yes,No,Yes,Yes,No,Richmond - Clarendon,No,2.0,17,0,17,0,17,17,2022,,,
LIQH400105568,Liquor - hotel licence,1960-09-12 00:00:00,Current,1960-09-12 00:00:00,Trading,Hotel Seven Hills,Seven Hills Rd,SEVEN HILLS,2147.0,-33.774633,150.934229,Blacktown,,Metropolitan,Belinda Williams,Full hotel,"Extended trading authorisation,Minors area authorisation,Right to keep gaming machines",Yes,No,No,Yes,No,Yes,Yes,Yes,Seven Hills - Toongabbie,No,2.0,30,0,30,0,30,30,2022,,,
LIQH400118791,Liquor - hotel licence,1960-09-12 00:00:00,Current,2022-10-29 00:00:00,Trading,Alexandra Hotel,62 Great Western Hwy,LEURA,2780.0,-33.711196,150.330168,Blue Mountains,,Metropolitan,Richard Wynne,Full hotel,"Extended trading authorisation,Right to keep gaming machines",Yes,No,No,Yes,No,Yes,Yes,No,Katoomba - Leura,No,2.0,18,0,18,0,18,18,2022,,,
LIQH400108060,Liquor - hotel licence,1960-09-09 00:00:00,Current,1960-09-09 00:00:00,Trading,Hotel Booma,Wagga Rd,LAVINGTON,2641.0,-36.051812,146.934463,Albury,,Country,Juanita Gulliford,Full hotel,"Extended trading authorisation,Minors area authorisation,Right to keep gaming machines",Yes,No,No,Yes,No,Yes,Yes,No,Lavington,Yes,3.0,21,0,21,0,21,21,2022,,,
LIQH400120826,Liquor - hotel licence,1960-09-07 00:00:00,Current,1960-09-07 00:00:00,Trading,Woolpack Hotel,36 Wynyard St,TUMUT,2720.0,-35.300955,148.224836,Snowy Valleys,,Country,PELAN PTY. LIMITED,Full hotel,"Extended trading authorisation,Minors area authorisation,Right to keep gaming machines",Yes,No,No,Yes,No,Yes,Yes,No,Tumut,Yes,3.0,4,0,4,0,4,4,2022,,,
LIQH400101457,Liquor - hotel licence,1960-09-05 00:00:00,Current,1960-09-05 00:00:00,Trading,Coolibah Hotel,15-25 Sherwood Rd,MERRYLANDS WEST,2160.0,-33.83372,150.968374,Cumberland,,Metropolitan,Gary Cameron,Full hotel,"Extended trading authorisation,Minors area authorisation,Reduced trading hours,Right to keep gaming ",Yes,Yes,No,Yes,No,Yes,Yes,No,Guildford West - Merrylands West,Yes,3.0,16,14,30,0,30,30,2022,,,
LIQH400101554,Liquor - hotel licence,1960-09-05 00:00:00,Current,1960-09-05 00:00:00,Trading,The Ranch,108 Herring Rd,MARSFIELD,2122.0,-33.781394,151.112265,Ryde,,Metropolitan,Shane Davey,Full hotel,"Extended trading authorisation,Minors area authorisation,Right to keep gaming machines",Yes,No,No,Yes,No,Yes,Yes,No,Macquarie Park - Marsfield,No,1.0,15,15,30,0,30,30,2022,,,
LIQH400103921,Liquor - hotel licence,1960-09-05 00:00:00,Current,1960-09-05 00:00:00,Trading,Riverwood Hotel,26 Josephine St,RIVERWOOD,2210.0,-33.948416,151.055083,Canterbury-Bankstown,,Metropolitan,Steve Mifsud,Full hotel,"Extended trading authorisation,Minors area authorisation,Right to keep gaming machines",Yes,No,No,Yes,No,Yes,Yes,No,Riverwood,Yes,3.0,25,3,28,0,28,28,2022,,,
LIQH400105800,Liquor - hotel licence,1960-08-31 00:00:00,Current,1960-08-31 00:00:00,Trading,Lalor Park Hotel,27 Sackville St,BLACKTOWN,2148.0,-33.764054,150.920019,Blacktown,,Metropolitan,Kieran Gleave,Full hotel,"Extended trading authorisation,Minors area authorisation,Right to keep gaming machines",Yes,No,No,Yes,No,Yes,Yes,Yes,Blacktown (East) - Kings Park,No,2.0,19,11,30,0,30,30,2022,,,
LIQH400104553,Liquor - hotel licence,1960-08-29 00:00:00,Current,1960-08-29 00:00:00,Trading,Palace Hotel Sydney Since 1877,730-742 George St,HAYMARKET,2000.0,-33.879493,151.205849,Sydney,Sydney CBD Precinct,Metropolitan,STRATHAVEN HOLDINGS PTY LTD,Full hotel,"Extended trading authorisation,Minors area authorisation,Right to keep gaming machines",Yes,No,No,Yes,No,Yes,Yes,Yes,Sydney - Haymarket - The Rocks,No,2.0,15,5,20,0,20,20,2022,,,
LIQH400120192,Liquor - hotel licence,1960-08-29 00:00:00,Current,2018-06-28 00:00:00,Trading,Court House Hotel,232 Peel St,TAMWORTH,2340.0,-31.087469,150.927496,Tamworth Regional,,Country,HARVEST PUB OPERATIONS PTY LTD,Full hotel,"Extended trading authorisation,Minors area authorisation,Right to keep gaming machines",Yes,No,No,Yes,No,Yes,Yes,No,Tamworth - North,No,2.0,19,0,19,0,19,19,2022,,,
LIQH400102410,Liquor - hotel licence,1960-08-15 00:00:00,Current,1960-08-15 00:00:00,Trading,Avondale Hotel,Burwood Rd & Railway Cres,BURWOOD,2134.0,-33.876761,151.103574,Burwood,,Metropolitan,Mark Duggan,Full hotel,"Extended trading authorisation,Minors area authorisation,Right to keep gaming machines",Yes,No,No,Yes,No,Yes,Yes,Yes,Burwood - Croydon,No,2.0,19,11,30,0,30,30,2022,,,
LIQH400104057,Liquor - hotel licence,1960-08-08 00:00:00,Current,1960-08-08 00:00:00,Trading,Sheraton Grand Sydney Hyde Park,161 Elizabeth St,SYDNEY,2000.0,-33.871587,151.209721,Sydney,Sydney CBD Precinct,Metropolitan,Krister Svensson,Full hotel,"Extended trading authorisation,Minors area authorisation,Right to keep gaming machines",Yes,No,No,Yes,No,Yes,Yes,Yes,Sydney - Haymarket - The Rocks,No,2.0,0,0,0,0,0,0,2022,,,
LIQH400102038,Liquor - hotel licence,1960-08-03 00:00:00,Current,1960-08-03 00:00:00,Trading,The Arthouse Hotel,275 Pitt St,SYDNEY,2000.0,-33.872308,151.207591,Sydney,Sydney CBD Precinct,Metropolitan,Brian Sarkis,Full hotel,"Extended trading authorisation,Minors area authorisation,Reduced trading hours,Right to keep gaming ",Yes,Yes,No,Yes,No,Yes,Yes,Yes,Sydney - Haymarket - The Rocks,No,2.0,21,0,21,0,21,21,2022,,,
LIQH400103522,Liquor - hotel licence,1960-08-03 00:00:00,Current,1960-08-03 00:00:00,Trading,The Mill Hotel (Milperra),189-191 Beaconsfield St,MILPERRA,2214.0,-33.942862,150.998059,Canterbury-Bankstown,,Metropolitan,Marlow Investments (No 3) Pty Limited,Full hotel,"Extended trading authorisation,Minors area authorisation,Right to keep gaming machines",Yes,No,No,Yes,No,Yes,Yes,Yes,Condell Park,Yes,3.0,26,0,26,0,26,26,2022,,,
LIQH400105541,Liquor - hotel licence,1960-08-03 00:00:00,Current,1960-08-03 00:00:00,Trading,Golden Tiger Bar,330-332 Forest Road,HURSTVILLE,2220.0,-33.966128,151.102004,Georges River,,Metropolitan,Bhuchida Sae-lee,Full hotel,"Extended trading authorisation,Minors area authorisation,Reduced trading hours,Right to keep gaming ",Yes,Yes,No,Yes,No,Yes,Yes,No,Hurstville,No,2.0,25,5,30,0,30,30,2022,,,
LIQH400120672,Liquor - hotel licence,1960-07-27 00:00:00,Current,1960-07-27 00:00:00,Trading,Canley Heights Hotel,272-276 Canley Vale Rd,CANLEY HEIGHTS,2166.0,-33.883979,150.924742,Fairfield,,Metropolitan,The trustee for Lewis Hotels (Canley Heights) Property Trust,Full hotel,"Extended trading authorisation,Minors area authorisation,Reduced trading hours,Right to keep gaming ",Yes,Yes,No,Yes,No,Yes,Yes,No,Canley Vale - Canley Heights,Yes,3.0,17,8,25,0,25,25,2022,,,
LIQH400102518,Liquor - hotel licence,1960-07-25 00:00:00,Current,1960-07-25 00:00:00,Trading,Gladstone Hotel,572 Marrickville Rd,DULWICH HILL,2203.0,-33.903582,151.142327,Inner West,,Metropolitan,John McGurk,Full hotel,"Extended trading authorisation,Minors area authorisation,Right to keep gaming machines",Yes,No,No,Yes,No,Yes,Yes,No,Dulwich Hill - Lewisham,No,1.0,28,1,29,0,29,28,2022,,,
LIQH400106467,Liquor - hotel licence,1960-07-25 00:00:00,Current,1960-07-25 00:00:00,Trading,Bar Broadway,2 Broadway,CHIPPENDALE,2008.0,-33.884275,151.202087,Sydney,,Metropolitan,WLWCM PTY LTD,Full hotel,"Extended trading authorisation,Minors area authorisation,Right to keep gaming machines",Yes,No,No,Yes,No,Yes,Yes,Yes,Redfern - Chippendale,No,2.0,15,13,28,0,28,28,2022,,,
LIQH400118023,Liquor - hotel licence,1960-07-19 00:00:00,Current,1960-07-19 00:00:00,Trading,Seven Seas Hotel,149 Hill St,CARRINGTON,2294.0,-32.915595,151.766875,Newcastle,,Metropolitan,Sam Cruikshank,Full hotel,"Extended trading authorisation,Minors area authorisation,Right to keep gaming machines",Yes,No,No,Yes,No,Yes,Yes,Yes,Wickham - Carrington - Tighes Hill,No,2.0,24,0,24,0,24,19,2022,,,
LIQH400103220,Liquor - hotel licence,1960-07-18 00:00:00,Current,1960-07-18 00:00:00,Trading,Glenquarie Tavern,Cnr Victoria Rd & Harold St,MACQUARIE FIELDS,2564.0,-33.986046,150.892637,Campbelltown,,Metropolitan,Jamii-Leigh O'Sullivan,Full hotel,"Extended trading authorisation,Minors area authorisation,Right to keep gaming machines",Yes,No,No,Yes,No,Yes,Yes,Yes,Macquarie Fields - Glenfield,No,2.0,30,0,30,0,30,30,2022,,,
LIQH400103662,Liquor - hotel licence,1960-07-11 00:00:00,Current,1960-07-11 00:00:00,Trading,Macquarie Hotel Liverpool,269 Macquarie St,LIVERPOOL,2170.0,-33.924036,150.92304,Liverpool,,Metropolitan,Sean MCDOWELL,Full hotel,"Extended trading authorisation,Minors area authorisation,Right to keep gaming machines",Yes,No,No,Yes,No,Yes,Yes,Yes,Liverpool,Yes,3.0,30,0,30,0,30,30,2022,,,
LIQH400104871,Liquor - hotel licence,1960-07-11 00:00:00,Current,1960-07-11 00:00:00,Trading,Crescent Tavern,81 The Crescent,FAIRFIELD,2165.0,-33.871665,150.956664,Fairfield,,Metropolitan,KEVIN GREEN,Full hotel,"Extended trading authorisation,Minors area authorisation,Right to keep gaming machines",Yes,No,No,Yes,No,Yes,Yes,Yes,Fairfield,Yes,3.0,18,12,30,0,30,30,2022,,,
LIQH400113625,Liquor - hotel licence,1960-07-06 00:00:00,Current,2021-06-28 00:00:00,Trading,Hampton Half-Way House Hotel,Jenolan Caves Rd,HAMPTON,2790.0,-33.639043,150.057954,Lithgow,,Country,Scott Loadsman,Full hotel,"Extended trading authorisation,Minors area authorisation,Right to keep gaming machines",Yes,No,No,Yes,No,Yes,Yes,Yes,Lithgow Region,No,2.0,0,0,0,0,0,0,2022,,,
LIQH400120729,Liquor - hotel licence,1960-07-06 00:00:00,Current,1960-07-06 00:00:00,Trading,Commercial Hotel,Wynyard & Russell Sts,TUMUT,2720.0,-35.301559,148.222415,Snowy Valleys,,Country,PELAN PTY. LIMITED,Full hotel,"Extended trading authorisation,Minors area authorisation,Right to keep gaming machines",Yes,No,No,Yes,No,Yes,Yes,No,Tumut,Yes,3.0,15,0,15,0,15,15,2022,,,
LIQH400111061,Liquor - hotel licence,1960-06-30 00:00:00,Current,1960-06-30 00:00:00,Trading,Man From Snowy River Hotel,Kosciusko State Park,PERISHER VALLEY,2624.0,-36.40592,148.412485,Snowy Monaro Regional,,Country,Mark Mooney,Full hotel,"Extended trading authorisation,Minors area authorisation,Right to keep gaming machines",Yes,No,No,Yes,No,Yes,Yes,Yes,Jindabyne - Berridale,No,1.0,0,0,0,0,0,0,2022,,,
LIQH400121164,Liquor - hotel licence,1960-06-30 00:00:00,Current,2017-06-28 00:00:00,Trading,Romano's Hotel,81 Fitzmaurice St,WAGGA WAGGA,2650.0,-35.105475,147.370125,Wagga Wagga,,Country,ACE HOTEL WAGGA PTY LTD,Full hotel,"Extended trading authorisation,Minors area authorisation,Right to keep gaming machines",Yes,No,No,Yes,No,Yes,Yes,No,Wagga Wagga - West,Yes,3.0,15,0,15,0,15,15,2022,,,
LIQH400103727,Liquor - hotel licence,1960-06-29 00:00:00,Current,1960-06-29 00:00:00,Trading,The Marayong Hotel,6 Cobham St,KINGS PARK,2148.0,-33.745843,150.90093,Blacktown,,Metropolitan,Tina Chambers,Full hotel,"Extended trading authorisation,Minors area authorisation,Right to keep gaming machines",Yes,No,No,Yes,No,Yes,Yes,No,Blacktown (East) - Kings Park,No,2.0,26,2,28,0,28,28,2022,,,
LIQH400103255,Liquor - hotel licence,1960-06-27 00:00:00,Current,2022-10-29 00:00:00,Trading,Wonderland,20-26 Bayswater Rd,POTTS POINT,2011.0,-33.874811,151.223886,Sydney,Kings Cross Precinct,Metropolitan,WORLD BAR SYDNEY PTY LTD,Full hotel,"Extended trading authorisation,Minors area authorisation,Reduced trading hours,Right to keep gaming ",Yes,Yes,No,Yes,No,Yes,Yes,Yes,Potts Point - Woolloomooloo,No,1.0,0,0,0,0,0,0,2022,,,
LIQH400120281,Liquor - hotel licence,1960-06-27 00:00:00,Current,1960-06-27 00:00:00,Trading,Peel Inn Hotel,Jenkins St,NUNDLE,2340.0,-31.460844,151.127679,Tamworth Regional,,Country,Robert Schofield,Full hotel,"Extended trading authorisation,Minors area authorisation,Right to keep gaming machines",Yes,No,No,Yes,No,Yes,Yes,No,Tamworth Region,No,1.0,3,0,3,0,3,3,2022,,,
LIQH400109911,Liquor - hotel licence,1960-06-24 00:00:00,Current,1960-06-24 00:00:00,Trading,Terrigal Beach House,Terrigal Esp,TERRIGAL,2260.0,-33.447525,151.444746,Central Coast,,Metropolitan,Terrigal Pacific Tavern Pty Limited,Full hotel,"Extended trading authorisation,Minors area authorisation,Minors functions authorisation,Right to kee",Yes,No,No,Yes,No,Yes,Yes,No,Terrigal - North Avoca,No,1.0,21,0,21,0,21,21,2022,,,
LIQH400110014,Liquor - hotel licence,1960-06-24 00:00:00,Current,1960-06-24 00:00:00,Trading,Terrigal Hotel,176 Terrigal Dr,TERRIGAL,2260.0,-33.441728,151.439789,Central Coast,,Metropolitan,Ian Corke,Full hotel,"Extended trading authorisation,Minors area authorisation,Right to keep gaming machines",Yes,No,No,Yes,No,Yes,Yes,No,Terrigal - North Avoca,No,1.0,26,0,26,0,26,26,2022,,,
LIQH400113862,Liquor - hotel licence,1960-06-22 00:00:00,Current,2018-07-21 00:00:00,Trading,Club House Hotel,147 High St,HILLSTON,2675.0,-33.484099,145.532591,Carrathool,,Country,MCKENZIE'S CLUB HOUSE HOTEL PTY LTD,Full hotel,"Extended trading authorisation,Minors area authorisation,Right to keep gaming machines",Yes,No,No,Yes,No,Yes,Yes,No,Griffith Region,No,2.0,0,0,0,0,0,0,2022,,,
LIQH400122039,Liquor - hotel licence,1960-06-21 00:00:00,Current,1960-06-21 00:00:00,Trading,Berkeley Hotel,7 Devon St,BERKELEY,2506.0,-34.480864,150.845589,Wollongong,,Metropolitan,Christopher Scaddan,Full hotel,"Extended trading authorisation,Minors area authorisation,Right to keep gaming machines",Yes,No,No,Yes,No,Yes,Yes,Yes,Berkeley - Lake Heights - Cringila,Yes,3.0,29,1,30,0,30,30,2022,,,
LIQH400102909,Liquor - hotel licence,1960-06-20 00:00:00,Current,1960-06-20 00:00:00,Trading,New Hampton Hotel,9-11 Bayswater Rd,POTTS POINT,2011.0,-33.875286,151.22309,Sydney,Kings Cross Precinct,Metropolitan,Peter Tate,Full hotel,"Extended trading authorisation,Minors area authorisation,Right to keep gaming machines",Yes,No,No,Yes,No,Yes,Yes,Yes,Potts Point - Woolloomooloo,No,1.0,26,0,26,0,26,26,2022,,,
LIQH400103379,Liquor - hotel licence,1960-06-20 00:00:00,Current,1960-06-20 00:00:00,Trading,Lansdowne Hotel,2-6 City Rd,CHIPPENDALE,2008.0,-33.884795,151.195022,Sydney,,Metropolitan,Timothy Keown,Full hotel,"Extended trading authorisation,Minors area authorisation,Right to keep gaming machines",Yes,No,No,Yes,No,Yes,Yes,Yes,Redfern - Chippendale,No,2.0,0,0,0,0,0,0,2022,,,
LIQH400105738,Liquor - hotel licence,1960-06-20 00:00:00,Current,1960-06-20 00:00:00,Trading,Stardust Hotel,84 Broomfield St,CABRAMATTA,2166.0,-33.894626,150.939831,Fairfield,,Metropolitan,Phillip Visalli,Full hotel,"Extended trading authorisation,Minors area authorisation,Right to keep gaming machines",Yes,No,No,Yes,No,Yes,Yes,Yes,Cabramatta - Lansvale,Yes,3.0,20,9,29,0,29,29,2022,,,
LIQH400106408,Liquor - hotel licence,1960-06-20 00:00:00,Current,2021-07-07 00:00:00,Trading,Bristol Arms Retro Tavern,81 Sussex St,SYDNEY,2000.0,-33.867807,151.203231,Sydney,Sydney CBD Precinct,Metropolitan,James Setter,Full hotel,"Extended trading authorisation,Minors area authorisation,Right to keep gaming machines",Yes,No,No,Yes,No,Yes,Yes,Yes,Sydney - Haymarket - The Rocks,No,2.0,12,4,16,0,16,0,2022,,,
LIQH400109113,Liquor - hotel licence,1960-06-16 00:00:00,Current,1960-06-16 00:00:00,Trading,Coffs Harbour Hotel,135 West High St,COFFS HARBOUR,2450.0,-30.2959,153.1139,Coffs Harbour,,Country,CH HOTEL PTY LTD,Full hotel,"Extended trading authorisation,Minors area authorisation,Right to keep gaming machines",Yes,No,No,Yes,No,Yes,Yes,Yes,Coffs Harbour - South,Yes,3.0,15,0,15,0,15,15,2022,,,
LIQH400108044,Liquor - hotel licence,1960-06-10 00:00:00,Current,1960-06-10 00:00:00,Trading,Astor Hotel Motel,Cnr Guinea & Young Sts,ALBURY,2640.0,-36.074879,146.92506,Albury,,Country,Brendon Cooper,Full hotel,"Extended trading authorisation,Minors area authorisation,Right to keep gaming machines",Yes,No,No,Yes,No,Yes,Yes,Yes,Albury - South,No,2.0,29,0,29,0,29,29,2022,,,
LIQH400115970,Liquor - hotel licence,1960-06-09 00:00:00,Current,2021-06-28 00:00:00,Trading,Post Office Hotel,33 Frome St,MOREE,2400.0,-29.463976,149.842638,Moree Plains,,Country,Elise Harper,Full hotel,"Extended trading authorisation,Minors area authorisation,Right to keep gaming machines",Yes,No,No,Yes,No,Yes,Yes,No,Moree,Yes,3.0,9,0,9,0,9,9,2022,,,
LIQH400105878,Liquor - hotel licence,1960-06-06 00:00:00,Current,1960-06-06 00:00:00,Trading,SHANGRI-LA SYDNEY,Essex & Gloucester Sts,THE ROCKS,2000.0,-33.861378,151.206398,Sydney,Sydney CBD Precinct,Metropolitan,PHILIPPE KRONBERG,Full hotel,"Extended trading authorisation,Minors area authorisation,Reduced trading hours,Right to keep gaming ",Yes,Yes,No,Yes,No,Yes,Yes,Yes,Sydney - Haymarket - The Rocks,No,2.0,0,0,0,0,0,0,2022,,,
LIQH400105916,Liquor - hotel licence,1960-06-06 00:00:00,Current,2018-06-28 00:00:00,Trading,Royal Crest Sylvania,Port Hacking Rd & Princes Hwy,SYLVANIA,2224.0,-34.008779,151.104511,Sutherland Shire,,Metropolitan,WARATAH HOTEL MANAGEMENT PTY LTD,Full hotel,"Extended trading authorisation,Minors area authorisation,Right to keep gaming machines",Yes,No,No,Yes,No,Yes,Yes,No,Sylvania - Taren Point,No,1.0,30,0,30,0,30,30,2022,,,
LIQH400114974,Liquor - hotel licence,1960-06-06 00:00:00,Current,1960-06-06 00:00:00,Trading,Bank Hotel,72-76 Melbourne St,EAST MAITLAND,2323.0,-32.745779,151.583417,Maitland,,Country,Corey Hinton,Full hotel,"Extended trading authorisation,Minors area authorisation,Right to keep gaming machines",Yes,No,No,Yes,No,Yes,Yes,No,Maitland - East,No,2.0,23,0,23,7,30,21,2022,,,
LIQH400110103,Liquor - hotel licence,1960-06-02 00:00:00,Current,1960-06-02 00:00:00,Trading,The Radisson Blu Plaza Hotel Sydney,27 O'Connell St,SYDNEY,2000.0,-33.865365,151.208959,Sydney,Sydney CBD Precinct,Metropolitan,Peter Tudehope,Full hotel,"Extended trading authorisation,Minors area authorisation,Minors functions authorisation,Right to kee",Yes,No,No,Yes,No,Yes,Yes,Yes,Sydney - Haymarket - The Rocks,No,2.0,0,0,0,0,0,0,2022,,,
LIQH400118643,Liquor - hotel licence,1960-05-26 00:00:00,Current,1960-05-26 00:00:00,Trading,Grey Gums Hotel,Blaikie & Mulgoa Rds,JAMISONTOWN,2750.0,-33.769327,150.674874,Penrith,,Metropolitan,Sean Pittaway,Full hotel,"Extended trading authorisation,Minors area authorisation,Right to keep gaming machines",Yes,No,No,Yes,No,Yes,Yes,Yes,Jamisontown - South Penrith,No,2.0,15,15,30,0,30,30,2022,,,
LIQH400104413,Liquor - hotel licence,1960-05-25 00:00:00,Current,1960-05-25 00:00:00,Trading,Orient Hotel,89 George St,THE ROCKS,2000.0,-33.859062,151.208625,Sydney,Sydney CBD Precinct,Metropolitan,Craig Wesker,Full hotel,"Extended trading authorisation,Minors area authorisation,Right to keep gaming machines",Yes,No,No,Yes,No,Yes,Yes,Yes,Sydney - Haymarket - The Rocks,No,2.0,15,0,15,0,15,15,2022,,,
LIQH400105665,Liquor - hotel licence,1960-05-25 00:00:00,Current,1960-05-25 00:00:00,Trading,Strawberry Hills Hotel,453 Elizabeth St,SURRY HILLS,2010.0,-33.8865,151.208027,Sydney,,Metropolitan,Richard Waddell,Full hotel,"Extended trading authorisation,Minors area authorisation,Right to keep gaming machines",Yes,No,No,Yes,No,Yes,Yes,Yes,Surry Hills,No,2.0,23,3,26,0,26,26,2022,,,
LIQH400121229,Liquor - hotel licence,1960-05-25 00:00:00,Current,1960-05-25 00:00:00,Trading,Turvey Park Hotel,71 Bolger Ave,MOUNT AUSTIN,2650.0,-35.133392,147.356979,Wagga Wagga,,Country,MARK HOGAN,Full hotel,"Extended trading authorisation,Minors area authorisation,Right to keep gaming machines",Yes,No,No,Yes,No,Yes,Yes,No,Wagga Wagga - South,No,2.0,30,0,30,0,30,30,2022,,,
LIQH400100566,Liquor - hotel licence,1960-05-23 00:00:00,Current,1960-05-23 00:00:00,Trading,Bexley North Hotel,Slade & Bexley Rds,BEXLEY NORTH,2207.0,-33.938126,151.115229,Bayside,,Metropolitan,TUNBORN PTY LIMITED,Full hotel,"Extended trading authorisation,Minors area authorisation,Minors functions authorisation,Reduced trad",Yes,Yes,No,Yes,No,Yes,Yes,Yes,Kingsgrove (South) - Bardwell Park,No,2.0,15,15,30,0,30,30,2022,,,
LIQH400100876,Liquor - hotel licence,1960-05-23 00:00:00,Current,1960-05-23 00:00:00,Trading,Bull And Bush Inn Hotel,378 Windsor Rd,BAULKHAM HILLS,2153.0,-33.761562,150.991852,The Hills Shire,,Metropolitan,Anthony El Khoury,Full hotel,"Extended trading authorisation,Minors area authorisation,Right to keep gaming machines",Yes,No,No,Yes,No,Yes,Yes,No,Baulkham Hills (East),No,1.0,16,14,30,0,30,30,2022,,,
LIQH400102755,Liquor - hotel licence,1960-05-23 00:00:00,Current,1960-05-23 00:00:00,Trading,Greenacre Hotel,166 Waterloo Rd,GREENACRE,2190.0,-33.907156,151.057044,Canterbury-Bankstown,,Metropolitan,James Robins,Full hotel,"Extended trading authorisation,Minors area authorisation,Right to keep gaming machines",Yes,No,No,Yes,No,Yes,Yes,Yes,Greenacre - Mount Lewis,Yes,3.0,19,11,30,0,30,30,2022,,,
LIQH400102984,Liquor - hotel licence,1960-05-23 00:00:00,Current,1960-05-23 00:00:00,Trading,The Corner Pub,1/214-220 Macquarie St,LIVERPOOL,2170.0,-33.922792,150.923958,Liverpool,,Metropolitan,Leigh Sienkiewicz,Full hotel,"Extended trading authorisation,Minors area authorisation,Reduced trading hours,Right to keep gaming ",Yes,Yes,No,Yes,No,Yes,Yes,No,Liverpool,Yes,3.0,15,7,22,0,22,22,2022,,,
LIQH400104685,Liquor - hotel licence,1960-05-23 00:00:00,Current,2015-07-02 00:00:00,Trading,Petersham Inn Hotel,386-396 Parramatta Rd,PETERSHAM,2049.0,-33.888108,151.161109,Inner West,,Metropolitan,Jessica Organ,Full hotel,"Extended trading authorisation,Minors area authorisation,Reduced trading hours,Right to keep gaming ",Yes,Yes,No,Yes,No,Yes,Yes,No,Petersham - Stanmore,No,1.0,9,0,9,0,9,9,2022,,,
LIQH400121318,Liquor - hotel licence,1960-05-20 00:00:00,Current,1960-05-20 00:00:00,Trading,New England Hotel,Fitzroy St,WALCHA,2354.0,-30.98524,151.596487,Walcha,,Country,Peter Berry,Full hotel,"Extended trading authorisation,Right to keep gaming machines",Yes,No,No,Yes,No,Yes,Yes,No,Walcha,No,2.0,4,0,4,0,4,4,2022,,,
LIQH400117388,Liquor - hotel licence,1960-05-17 00:00:00,Current,1960-05-17 00:00:00,Trading,Freeway Hotel,113-115 Reserve Rd,ARTARMON,2064.0,-33.814234,151.186109,Willoughby,,Metropolitan,Tony Hasbani,Full hotel,"Extended trading authorisation,Minors area authorisation,Right to keep gaming machines",Yes,No,No,Yes,No,Yes,Yes,Yes,St Leonards - Naremburn,No,1.0,15,15,30,0,30,30,2022,,,
LIQH400118910,Liquor - hotel licence,1960-05-17 00:00:00,Current,1960-05-17 00:00:00,Trading,Kingswood Hotel,180 Great Western Hwy,KINGSWOOD,2747.0,-33.759045,150.720223,Penrith,,Metropolitan,Jessie Fry,Full hotel,"Extended trading authorisation,Minors area authorisation,Right to keep gaming machines",Yes,No,No,Yes,No,Yes,Yes,No,Kingswood - Werrington,No,2.0,26,4,30,0,30,30,2022,,,
LIQH400100779,Liquor - hotel licence,1960-05-16 00:00:00,Current,1960-05-16 00:00:00,Trading,The Australian Hotel & Brewery,350 Annangrove Rd,ROUSE HILL,2155.0,-33.674452,150.912725,The Hills Shire,,Metropolitan,James SMITH,Full hotel,"Extended trading authorisation,Minors area authorisation,Reduced trading hours,Right to keep gaming ",Yes,Yes,No,Yes,No,Yes,Yes,No,Rouse Hill - Beaumont Hills,No,1.0,30,0,30,0,30,28,2022,,,
LIQH400103018,Liquor - hotel licence,1960-05-16 00:00:00,Current,1960-05-16 00:00:00,Trading,Homebush Hotel,Parramatta Rd & Underwood St,HOMEBUSH WEST,2140.0,-33.860112,151.072148,Strathfield,,Metropolitan,RENLARN PTY LTD,Full hotel,"Extended trading authorisation,Minors area authorisation,Right to keep gaming machines",Yes,No,No,Yes,No,Yes,Yes,Yes,Homebush,No,2.0,15,11,26,0,26,0,2022,,,
LIQH400114958,Liquor - hotel licence,1960-05-13 00:00:00,Current,1960-05-13 00:00:00,Trading,Vegas Hotel,55-57 North Pde,MOUNT DRUITT,2770.0,-33.768682,150.821424,Blacktown,,Metropolitan,Gregory James,Full hotel,"Extended trading authorisation,Minors area authorisation,Right to keep gaming machines",Yes,No,No,Yes,No,Yes,Yes,Yes,Mount Druitt - Whalan,Yes,3.0,30,0,30,0,30,30,2022,,,
LIQH400101627,Liquor - hotel licence,1960-05-02 00:00:00,Current,1960-05-02 00:00:00,Trading,Nine Bar,"Ground Floor & Level 1, 72 Liverpool",Sydney,2000.0,-33.870846,151.20733,Sydney,Sydney CBD Precinct,Metropolitan,RADIKNOX INVESTMENTS PTY. LTD.,Full hotel,"Extended trading authorisation,Minors area authorisation,Reduced trading hours,Right to keep gaming ",Yes,Yes,No,Yes,No,Yes,Yes,Yes,Sydney - Haymarket - The Rocks,No,2.0,15,0,15,0,15,15,2022,,,
LIQH400101767,Liquor - hotel licence,1960-05-02 00:00:00,Current,1960-05-02 00:00:00,Trading,Sydney Harbour Marriott,30 Pitt St,SYDNEY,2000.0,-33.862897,151.209509,Sydney,Sydney CBD Precinct,Metropolitan,Bernhard Langer,Full hotel,"Extended trading authorisation,Minors area authorisation,Right to keep gaming machines",Yes,No,No,Yes,No,Yes,Yes,Yes,Sydney - Haymarket - The Rocks,No,2.0,0,0,0,0,0,0,2022,,,
LIQH400101996,Liquor - hotel licence,1960-05-02 00:00:00,Current,1960-05-02 00:00:00,Trading,East Sydney Hotel,Cathedral & Crown Sts,WOOLLOOMOOLOO,2011.0,-33.872607,151.216853,Sydney,Sydney CBD Precinct,Metropolitan,THE EAST SYDNEY HOTEL PTY. LIMITED,Full hotel,"Extended trading authorisation,Reduced trading hours,Right to keep gaming machines",Yes,Yes,No,Yes,No,Yes,Yes,No,Potts Point - Woolloomooloo,No,1.0,0,0,0,0,0,0,2022,,,
LIQH400100728,Liquor - hotel licence,1960-04-27 00:00:00,Current,1960-04-27 00:00:00,Trading,Bridge Hotel,135 Victoria Rd,ROZELLE,2039.0,-33.862793,151.168942,Inner West,,Metropolitan,Richard Keough,Full hotel,"Extended trading authorisation,Minors area authorisation,Right to keep gaming machines",Yes,No,No,Yes,No,Yes,Yes,Yes,Lilyfield - Rozelle,No,1.0,15,0,15,0,15,15,2022,,,
LIQH400103174,Liquor - hotel licence,1960-04-27 00:00:00,Current,2020-10-21 00:00:00,Trading,Ivanhoe Hotel,"Part 19-23, 25, 27 and Part 31 The Corso",MANLY,2095.0,-33.806016,151.294778,Northern Beaches,,Metropolitan,Samuel Baker,Full hotel,"Extended trading authorisation,Minors area authorisation,Right to keep gaming machines",Yes,No,No,Yes,No,Yes,Yes,Yes,Manly - Fairlight,No,1.0,15,15,30,0,30,30,2022,,,
LIQH400119321,Liquor - hotel licence,1960-04-20 00:00:00,Current,1960-04-20 00:00:00,Trading,Lake George Hotel/Motel,20 Gibraltar St,BUNGENDORE,2621.0,-35.253732,149.44041,Queanbeyan-Palerang Regional,,Country,Richard Harry,Full hotel,"Extended trading authorisation,Minors area authorisation,Right to keep gaming machines",Yes,No,No,Yes,No,Yes,Yes,No,Queanbeyan Region,No,1.0,23,0,23,0,23,17,2022,,,
LIQH400102836,Liquor - hotel licence,1960-04-19 00:00:00,Current,1960-04-19 00:00:00,Trading,The Alfred Hotel,Missenden Rd & Dunbane St,CAMPERDOWN,2050.0,-33.888043,151.180627,Sydney,,Metropolitan,Samuel Smith,Full hotel,"Extended trading authorisation,Minors area authorisation,Right to keep gaming machines",Yes,No,No,Yes,No,Yes,Yes,Yes,Newtown - Camperdown - Darlington,No,1.0,15,0,15,0,15,15,2022,,,
LIQH400100523,Liquor - hotel licence,1960-04-11 00:00:00,Current,1960-04-11 00:00:00,Trading,The Beverly Hills Hotel,427 King Georges Rd,BEVERLY HILLS,2209.0,-33.950363,151.081099,Georges River,,Metropolitan,GLENBOURNE INVESTMENTS PTY. LTD.,Full hotel,"Extended trading authorisation,Minors area authorisation,Reduced trading hours,Right to keep gaming ",Yes,Yes,No,Yes,No,Yes,Yes,Yes,Narwee - Beverly Hills,No,2.0,30,0,30,0,30,30,2022,,,
LIQH400100558,Liquor - hotel licence,1960-04-11 00:00:00,Current,1960-04-11 00:00:00,Trading,The Beresford Hotel,354 Bourke St,SURRY HILLS,2010.0,-33.883304,151.216591,Sydney,Sydney CBD Precinct,Metropolitan,Paul Flynn,Full hotel,"Extended trading authorisation,Minors area authorisation,Reduced trading hours,Right to keep gaming ",Yes,Yes,No,Yes,No,Yes,Yes,No,Surry Hills,No,2.0,0,0,0,0,0,0,2022,,,
LIQH400104383,Liquor - hotel licence,1960-04-11 00:00:00,Current,1960-04-11 00:00:00,Trading,Universal Hotel,85-91 Oxford St,DARLINGHURST,2010.0,-33.879006,151.214447,Sydney,Sydney CBD Precinct,Metropolitan,Dillon SHAW,Full hotel,"Extended trading authorisation,Right to keep gaming machines",Yes,No,No,Yes,No,Yes,Yes,Yes,Darlinghurst,No,1.0,9,11,20,0,20,20,2022,,,
LIQH400105452,Liquor - hotel licence,1960-04-11 00:00:00,Current,1960-04-11 00:00:00,Trading,Royal Sheaf Hotel,231 Burwood Rd,BURWOOD,2134.0,-33.887237,151.101308,Burwood,,Metropolitan,Aaron Smart,Full hotel,"Extended trading authorisation,Minors area authorisation,Reduced trading hours,Right to keep gaming ",Yes,Yes,No,Yes,No,Yes,Yes,No,Burwood - Croydon,No,2.0,15,15,30,0,30,30,2022,,,
LIQH400106416,Liquor - hotel licence,1960-04-11 00:00:00,Current,1960-04-11 00:00:00,Trading,Wentworth Hotel,195 Parramatta Rd,HOMEBUSH WEST,2140.0,-33.859521,151.073535,Strathfield,,Metropolitan,Elie Boumelhem,Full hotel,"Extended trading authorisation,Minors area authorisation,Right to keep gaming machines",Yes,No,No,Yes,No,Yes,Yes,Yes,Homebush,No,2.0,30,0,30,0,30,30,2022,,,
LIQH400108818,Liquor - hotel licence,1960-04-11 00:00:00,Current,1960-04-11 00:00:00,Trading,Home Nightclub,"Cockle Bay Wharf, Tenancy 101 1 Wheat Rd",SYDNEY,2000.0,-33.869534,151.202069,Sydney,Sydney CBD Precinct,Metropolitan,BIG BEAT (AUSTRALIA) PTY LIMITED,Full hotel,"Extended trading authorisation,Minors area authorisation,Minors functions authorisation,Right to kee",Yes,No,No,Yes,No,Yes,Yes,Yes,Sydney - Haymarket - The Rocks,No,2.0,0,0,0,0,0,0,2022,,,
LIQH400103832,Liquor - hotel licence,1960-04-07 00:00:00,Current,2017-07-07 00:00:00,Trading,Shell House,14 Carrington St,SYDNEY,2000.0,-33.865346,151.206679,Sydney,Sydney CBD Precinct,Metropolitan,Andrew Condon,Full hotel,"Extended trading authorisation,Minors area authorisation,Minors functions authorisation,Right to kee",Yes,No,No,Yes,No,Yes,Yes,Yes,Sydney - Haymarket - The Rocks,No,2.0,0,0,0,0,0,0,2022,,,
LIQH400104049,Liquor - hotel licence,1960-04-07 00:00:00,Current,1960-04-07 00:00:00,Trading,Bar Lucca,52 Phillip St,SYDNEY,2000.0,-33.864093,151.21204,Sydney,Sydney CBD Precinct,Metropolitan,Andrew Martin,Full hotel,"Extended trading authorisation,Right to keep gaming machines",Yes,No,No,Yes,No,Yes,Yes,Yes,Sydney - Haymarket - The Rocks,No,2.0,1,0,1,0,1,0,2022,,,
LIQH400104790,Liquor - hotel licence,1960-04-04 00:00:00,Current,2022-10-28 00:00:00,Trading,Mirage Hotel,802-806 Punchbowl Rd,PUNCHBOWL,2196.0,-33.926183,151.054272,Canterbury-Bankstown,,Metropolitan,Souheil Khoury,Full hotel,"Extended trading authorisation,Reduced trading hours,Right to keep gaming machines",Yes,Yes,No,Yes,No,Yes,Yes,Yes,Punchbowl,Yes,3.0,23,7,30,0,30,30,2022,,,
LIQH400110480,Liquor - hotel licence,1960-04-01 00:00:00,Current,1960-04-01 00:00:00,Trading,Sanctuary Hotel,545-553 Kent St,SYDNEY,2000.0,-33.875991,151.205242,Sydney,Sydney CBD Precinct,Metropolitan,Jason Dumbrell,Full hotel,"Extended trading authorisation,Minors area authorisation,Reduced trading hours,Right to keep gaming ",Yes,Yes,No,Yes,No,Yes,Yes,No,Sydney - Haymarket - The Rocks,No,2.0,15,15,30,0,30,30,2022,,,
LIQH400101694,Liquor - hotel licence,1960-03-28 00:00:00,Current,1960-03-28 00:00:00,Trading,Crown on McCredie,Fairfield & McCredie Rds,GUILDFORD WEST,2161.0,-33.850991,150.959998,Cumberland,,Metropolitan,Anthony Bensley,Full hotel,"Extended trading authorisation,Minors area authorisation,Reduced trading hours,Right to keep gaming ",Yes,Yes,No,Yes,No,Yes,Yes,No,Guildford West - Merrylands West,Yes,3.0,16,13,29,0,29,29,2022,,,
LIQH400112297,Liquor - hotel licence,1960-03-16 00:00:00,Current,1960-03-16 00:00:00,Trading,Chatswood Monkey Bar,53 Orchard Rd,CHATSWOOD,2067.0,-33.795416,151.181493,Willoughby,,Metropolitan,Chattiya Sutthiwan,Full hotel,"Extended trading authorisation,Reduced trading hours,Right to keep gaming machines",Yes,Yes,No,Yes,No,Yes,Yes,No,Chatswood (East) - Artarmon,No,1.0,26,4,30,0,30,30,2022,,,
LIQH400111266,Liquor - hotel licence,1960-03-15 00:00:00,Current,1960-03-15 00:00:00,Trading,Mountain View Hotel Motel,Denham St,TOORAWEENAH,2817.0,-31.440162,148.909251,Gilgandra,,Country,Ashlee Jenkin,Full hotel,"Extended trading authorisation,Right to keep gaming machines",Yes,No,No,Yes,No,Yes,Yes,Yes,Gilgandra,Yes,3.0,0,0,0,0,0,0,2022,,,
LIQH400101252,Liquor - hotel licence,1960-03-14 00:00:00,Current,2022-10-28 00:00:00,Trading,Kent St. Hotel,347 Kent St,SYDNEY,2000.0,-33.868497,151.204148,Sydney,Sydney CBD Precinct,Metropolitan,NETTLEWOOD MANAGEMENT PTY LTD,Full hotel,"Extended trading authorisation,Minors area authorisation,Right to keep gaming machines",Yes,No,No,Yes,No,Yes,Yes,Yes,Sydney - Haymarket - The Rocks,No,2.0,18,0,18,0,18,18,2022,,,
LIQH400103468,Liquor - hotel licence,1960-03-14 00:00:00,Current,1960-03-14 00:00:00,Trading,Liverpool Hotel,Cnr Moore & Macquarie Sts,LIVERPOOL,2170.0,-33.922792,150.923958,Liverpool,,Metropolitan,Netti Rua,Full hotel,"Extended trading authorisation,Minors area authorisation,Right to keep gaming machines",Yes,No,No,Yes,No,Yes,Yes,No,Liverpool,Yes,3.0,23,7,30,0,30,30,2022,,,
LIQH400104448,Liquor - hotel licence,1960-03-14 00:00:00,Current,1960-03-14 00:00:00,Trading,The Colombian Hotel,117-125 Oxford St,DARLINGHURST,2010.0,-33.879647,151.215314,Sydney,Sydney CBD Precinct,Metropolitan,Michael Gallagher,Full hotel,"Extended trading authorisation,Right to keep gaming machines",Yes,No,No,Yes,No,Yes,Yes,Yes,Darlinghurst,No,1.0,15,15,30,0,30,30,2022,,,
LIQH400106564,Liquor - hotel licence,1960-03-14 00:00:00,Current,1960-03-14 00:00:00,Trading,Wiley Park Hotel,67 King Georges Rd,WILEY PARK,2195.0,-33.922044,151.067509,Canterbury-Bankstown,,Metropolitan,Leigh Butcher,Full hotel,"Extended trading authorisation,Minors area authorisation,Right to keep gaming machines",Yes,No,No,Yes,No,Yes,Yes,Yes,Wiley Park,Yes,3.0,15,15,30,0,30,30,2022,,,
LIQH400116411,Liquor - hotel licence,1960-03-14 00:00:00,Current,1960-03-14 00:00:00,Trading,Great Northern Hotel,Jonson St,BYRON BAY,2481.0,-28.643265,153.612675,Byron,,Country,SCOTTS GNH PTY LTD,Full hotel,"Extended trading authorisation,Minors area authorisation,Right to keep gaming machines",Yes,No,No,Yes,No,Yes,Yes,No,Byron Bay,No,1.0,27,0,27,0,27,27,2022,,,
LIQH400118376,Liquor - hotel licence,1960-03-14 00:00:00,Current,1960-03-14 00:00:00,Trading,Canobolas Hotel,248 Summer St,ORANGE,2800.0,-33.28409,149.101419,Orange,,Country,CARMEL WILKINS,Full hotel,"Extended trading authorisation,Minors area authorisation,Right to keep gaming machines",Yes,No,No,Yes,No,Yes,Yes,No,Orange,Yes,3.0,14,0,14,0,14,14,2022,,,
LIQH400116608,Liquor - hotel licence,1960-03-10 00:00:00,Current,1960-03-10 00:00:00,Trading,Prince of Wales Hotel,Sydney & Maitland Sts,MUSWELLBROOK,2333.0,-32.268133,150.887202,Muswellbrook,,Country,Upper Hunter Motors,Full hotel,"Extended trading authorisation,Minors area authorisation,Right to keep gaming machines",Yes,No,No,Yes,No,Yes,Yes,No,Muswellbrook,Yes,3.0,0,0,0,0,0,0,2022,,,
LIQH400113552,Liquor - hotel licence,1960-03-08 00:00:00,Current,1960-03-08 00:00:00,Trading,Commercial Hotel Motel,198 Main St,LITHGOW,2790.0,-33.482467,150.152756,Lithgow,,Country,NAJOSA PTY LTD,Full hotel,"Extended trading authorisation,Minors area authorisation,Right to keep gaming machines",Yes,No,No,Yes,No,Yes,Yes,No,Lithgow,Yes,3.0,12,0,12,0,12,12,2022,,,
LIQH400100744,Liquor - hotel licence,1960-03-07 00:00:00,Current,1960-03-07 00:00:00,Trading,Novotel Sydney Brighton Beach,Cnr Grand Pde & Princess St,BRIGHTON-LE-SANDS,2216.0,-33.960213,151.155899,Bayside,,Metropolitan,Ajay Vaid,Full hotel,"Extended trading authorisation,Minors area authorisation,Minors functions authorisation,Right to kee",Yes,No,No,Yes,No,Yes,Yes,No,Monterey - Brighton-le-Sands - Kyeemagh,No,2.0,15,15,30,0,30,30,2022,,,
LIQH400104650,Liquor - hotel licence,1960-03-07 00:00:00,Current,1960-03-07 00:00:00,Trading,Pendle Inn Hotel,223 Wentworth Ave,PENDLE HILL,2145.0,-33.800799,150.956904,Parramatta,,Metropolitan,Michael Bray,Full hotel,"Extended trading authorisation,Minors area authorisation,Right to keep gaming machines",Yes,No,No,Yes,No,Yes,Yes,Yes,Toongabbie - Constitution Hill,No,1.0,24,6,30,0,30,30,2022,,,
LIQH400118546,Liquor - hotel licence,1960-03-02 00:00:00,Current,1960-03-02 00:00:00,Trading,Royal Hotel,Lords Pl & Summer St,ORANGE,2800.0,-33.283601,149.100985,Orange,,Country,ROYAL HOTEL ORANGE PTY LTD,Full hotel,"Extended trading authorisation,Minors area authorisation,Right to keep gaming machines",Yes,No,No,Yes,No,Yes,Yes,Yes,Orange,Yes,3.0,25,0,25,0,25,25,2022,,,
LIQH400105347,Liquor - hotel licence,1960-02-29 00:00:00,Current,1960-02-29 00:00:00,Trading,Royal Exhibition Hotel,86-88 Chalmers St,SURRY HILLS,2010.0,-33.885968,151.20715,Sydney,,Metropolitan,Francisco Grez,Full hotel,"Extended trading authorisation,Minors area authorisation,Right to keep gaming machines",Yes,No,No,Yes,No,Yes,Yes,Yes,Surry Hills,No,2.0,25,3,28,0,28,28,2022,,,
LIQH400100892,Liquor - hotel licence,1960-02-22 00:00:00,Current,1960-02-22 00:00:00,Trading,Burdekin Hotel,2 Oxford St,DARLINGHURST,2010.0,-33.87714,151.212953,Sydney,Sydney CBD Precinct,Metropolitan,Burdekin Hotel Group Pty Ltd,Full hotel,"Extended trading authorisation,Right to keep gaming machines",Yes,No,No,Yes,No,Yes,Yes,Yes,Darlinghurst,No,1.0,0,0,0,0,0,0,2022,,,
LIQH400103972,Liquor - hotel licence,1960-02-22 00:00:00,Current,1960-02-22 00:00:00,Trading,Miranda Hotel,590 Kingsway,MIRANDA,2228.0,-34.034445,151.101237,Sutherland Shire,,Metropolitan,Nathan Van Hoeck,Full hotel,"Extended trading authorisation,Minors area authorisation,Right to keep gaming machines",Yes,No,No,Yes,No,Yes,Yes,No,Miranda - Yowie Bay,No,1.0,23,7,30,0,30,30,2022,,,
LIQH400108575,Liquor - hotel licence,1960-02-19 00:00:00,Current,1960-02-19 00:00:00,Trading,Slipway Inn,56 River St,BALLINA,2478.0,-28.871937,153.562171,Ballina,,Country,BEARE INVESTMENTS PTY. LTD.,Full hotel,"Extended trading authorisation,Minors area authorisation,Right to keep gaming machines",Yes,No,No,Yes,No,Yes,Yes,No,Ballina,Yes,3.0,15,0,15,0,15,15,2022,,,
LIQH400108397,Liquor - hotel licence,1960-02-18 00:00:00,Current,1960-02-18 00:00:00,Trading,Imperial Hotel,Cnr Beardy & Faulkner Sts,ARMIDALE,2350.0,-30.513875,151.667213,Armidale Regional,,Country,DAVECOLE PTY LTD,Full hotel,"Extended trading authorisation,Minors area authorisation,Right to keep gaming machines",Yes,No,No,Yes,No,Yes,Yes,No,Armidale,No,2.0,6,0,6,0,6,6,2022,,,
LIQH400116519,Liquor - hotel licence,1960-02-16 00:00:00,Current,1960-02-16 00:00:00,Trading,Dolphins Harbourside Hotel,Wharf St,TWEED HEADS,2485.0,-28.17005,153.543028,Tweed,,Country,CHEVAL HOTEL MANAGEMENT PTY LTD & TWEED MANAGEMENT PTY LTD,Full hotel,"Extended trading authorisation,Minors area authorisation,Right to keep gaming machines",Yes,No,No,Yes,No,Yes,Yes,Yes,Tweed Heads,Yes,3.0,15,0,15,0,15,15,2022,,,
LIQH400118171,Liquor - hotel licence,1960-02-16 00:00:00,Current,1960-02-16 00:00:00,Trading,Toronto Hotel,74 Victory Pde,TORONTO,2283.0,-33.012148,151.595813,Lake Macquarie,,Metropolitan,Jonathan Bortoli,Full hotel,"Extended trading authorisation,Minors area authorisation,Right to keep gaming machines",Yes,No,No,Yes,No,Yes,Yes,Yes,Toronto - Awaba,No,2.0,17,0,17,0,17,15,2022,,,
LIQH400100310,Liquor - hotel licence,1960-02-15 00:00:00,Current,1960-02-15 00:00:00,Trading,Crowbar Sydney,345 Parramatta Rd,LEICHHARDT,2040.0,-33.887472,151.159422,Inner West,,Metropolitan,CROWBAR (NSW) PTY LTD,Full hotel,"Extended trading authorisation,Minors area authorisation,Right to keep gaming machines",Yes,No,No,Yes,No,Yes,Yes,No,Leichhardt - Annandale,No,1.0,0,0,0,0,0,0,2022,,,
LIQH400100833,Liquor - hotel licence,1960-02-15 00:00:00,Current,1960-02-15 00:00:00,Trading,Brookvale Hotel,511 Pittwater Rd,BROOKVALE,2100.0,-33.762673,151.270868,Northern Beaches,,Metropolitan,Michael Paterson,Full hotel,"Extended trading authorisation,Minors area authorisation,Right to keep gaming machines",Yes,No,No,Yes,No,Yes,Yes,No,Freshwater - Brookvale,No,1.0,29,0,29,0,29,29,2022,,,
LIQH400109490,Liquor - hotel licence,1960-02-10 00:00:00,Current,2020-10-21 00:00:00,Trading,Royal Hotel,59 Adelaide St,BLAYNEY,2799.0,-33.532288,149.254838,Blayney,,Country,Linda Taylor,Full hotel,"Extended trading authorisation,Minors area authorisation,Right to keep gaming machines",Yes,No,No,Yes,No,Yes,Yes,No,Blayney,No,1.0,5,0,5,0,5,5,2022,,,
LIQH400117434,Liquor - hotel licence,1960-02-09 00:00:00,Current,1960-02-09 00:00:00,Trading,King Street Newcastle,13 and 15 King Street,Newcastle West,2302.0,-32.927736,151.764076,Newcastle,,Metropolitan,Russell Richardson,Full hotel,"Extended trading authorisation,Minors area authorisation,Right to keep gaming machines",Yes,No,No,Yes,No,Yes,Yes,No,Newcastle - Cooks Hill,No,1.0,0,0,0,0,0,0,2022,,,
LIQH400115067,Liquor - hotel licence,1960-02-08 00:00:00,Current,1960-02-08 00:00:00,Trading,Coach and Horses Hotel Maitland,41 Elgin St,MAITLAND,2320.0,-32.734119,151.554543,Maitland,,Country,HUNTER HOTEL GROUP PTY. LTD.,Full hotel,"Extended trading authorisation,Minors area authorisation,Right to keep gaming machines",Yes,No,No,Yes,No,Yes,Yes,Yes,Maitland,No,2.0,24,0,24,0,24,24,2022,,,
LIQH400109210,Liquor - hotel licence,1960-02-06 00:00:00,Current,1960-02-06 00:00:00,Trading,Pier Hotel,Camperdown St,COFFS HARBOUR,2450.0,-30.304359,153.136366,Coffs Harbour,,Country,SKINNER PIER HOTEL PTY LTD,Full hotel,"Extended trading authorisation,Minors area authorisation,Right to keep gaming machines",Yes,No,No,Yes,No,Yes,Yes,No,Coffs Harbour - South,Yes,3.0,17,0,17,0,17,17,2022,,,
LIQH400102070,Liquor - hotel licence,1960-02-04 00:00:00,Current,1960-02-04 00:00:00,Trading,Waterworks Hotel,1102 Botany Rd,BOTANY,2019.0,-33.944052,151.195852,Bayside,,Metropolitan,Kieran King,Full hotel,"Extended trading authorisation,Minors area authorisation,Right to keep gaming machines",Yes,No,No,Yes,No,Yes,Yes,Yes,Botany,No,1.0,30,0,30,0,30,30,2022,,,
LIQH400100809,Liquor - hotel licence,1960-02-03 00:00:00,Current,1960-02-03 00:00:00,Trading,Vegas Hotel,54 Darlinghurst Rd,POTTS POINT,2011.0,-33.8742,151.223533,Sydney,Kings Cross Precinct,Metropolitan,LEWIS HOTELS VEGAS PTY LTD,Full hotel,"Extended trading authorisation,Right to keep gaming machines",Yes,No,No,Yes,No,Yes,Yes,Yes,Potts Point - Woolloomooloo,No,1.0,17,13,30,0,30,30,2022,,,
LIQH400101244,Liquor - hotel licence,1960-02-03 00:00:00,Current,2021-07-14 00:00:00,Trading,The Bank Hotel Sydney,42 Darlinghurst Rd,POTTS POINT,2011.0,-33.87384,151.223811,Sydney,Kings Cross Precinct,Metropolitan,Chyna Bamber,Full hotel,"Extended trading authorisation,Minors area authorisation,Reduced trading hours,Right to keep gaming ",Yes,Yes,No,Yes,No,Yes,Yes,Yes,Potts Point - Woolloomooloo,No,1.0,0,0,0,0,0,0,2022,,,
LIQH400122632,Liquor - hotel licence,1960-01-21 00:00:00,Current,2015-07-24 00:00:00,Trading,White Tank Hotel,203 Main St,WEST WYALONG,2671.0,-33.922053,147.203166,Bland,,Country,The White Tank Hotel Pty Ltd,Full hotel,"Extended trading authorisation,Minors area authorisation,Right to keep gaming machines",Yes,No,No,Yes,No,Yes,Yes,No,West Wyalong,No,2.0,4,0,4,0,4,0,2022,,,
LIQH400101864,Liquor - hotel licence,1960-01-20 00:00:00,Current,1960-01-20 00:00:00,Trading,Mr B's Hotel,396 Pitt St,SYDNEY,2000.0,-33.878336,151.207676,Sydney,Sydney CBD Precinct,Metropolitan,Thapanon Wachiranon,Full hotel,"Extended trading authorisation,Minors area authorisation,Right to keep gaming machines",Yes,No,No,Yes,No,Yes,Yes,No,Sydney - Haymarket - The Rocks,No,2.0,30,0,30,0,30,30,2022,,,
LIQH400100620,Liquor - hotel licence,1960-01-18 00:00:00,Current,1960-01-18 00:00:00,Trading,The Eastern,512-514 Oxford St,BONDI JUNCTION,2022.0,-33.891415,151.250815,Waverley,,Metropolitan,EASTERN PURSUITS PTY LTD,Full hotel,"Extended trading authorisation,Minors area authorisation,Right to keep gaming machines",Yes,No,No,Yes,No,Yes,Yes,Yes,Bondi Junction - Waverly,No,1.0,18,0,18,0,18,18,2022,,,
LIQH400104081,Liquor - hotel licence,1960-01-18 00:00:00,Current,1960-01-18 00:00:00,Trading,New Brighton Hotel,71 The Corso,MANLY,2095.0,-33.797355,151.28721,Northern Beaches,,Metropolitan,Nelson Zambrano Vernay,Full hotel,"Extended trading authorisation,Minors area authorisation,Reduced trading hours,Right to keep gaming ",Yes,Yes,No,Yes,No,Yes,Yes,Yes,Manly - Fairlight,No,1.0,15,15,30,0,30,30,2022,,,
LIQH400105193,Liquor - hotel licence,1960-01-18 00:00:00,Current,1960-01-18 00:00:00,Trading,Royal Hotel,Railway Pde & Jubilee Ave,CARLTON,2218.0,-33.968793,151.124491,Georges River,,Metropolitan,Marlow Investments (No 3) Pty Limited,Full hotel,"Extended trading authorisation,Minors area authorisation,Right to keep gaming machines",Yes,No,No,Yes,No,Yes,Yes,No,Kogarah Bay - Carlton - Allawah,No,2.0,28,0,28,0,28,28,2022,,,
LIQH400105320,Liquor - hotel licence,1960-01-18 00:00:00,Current,1960-01-18 00:00:00,Trading,Royal Exchange Hotel,Marrickville & Garners Rds,MARRICKVILLE,2204.0,-33.910898,151.157841,Inner West,,Metropolitan,LEWIS HOTELS (MARRICKVILLE) PTY LTD,Full hotel,"Extended trading authorisation,Minors area authorisation,Minors functions authorisation,Right to kee",Yes,No,No,Yes,No,Yes,Yes,No,Marrickville,No,1.0,23,7,30,0,30,30,2022,,,
LIQH400101309,Liquor - hotel licence,1960-01-11 00:00:00,Current,1960-01-11 00:00:00,Trading,Bar Cleveland,433 Cleveland St,REDFERN,2016.0,-33.891884,151.214145,Sydney,,Metropolitan,Dimitri Bousgas,Full hotel,"Extended trading authorisation,Minors area authorisation,Right to keep gaming machines",Yes,No,No,Yes,No,Yes,Yes,Yes,Redfern - Chippendale,No,2.0,19,0,19,0,19,19,2022,,,
LIQH400105126,Liquor - hotel licence,1960-01-11 00:00:00,Current,1960-01-11 00:00:00,Trading,Rose Bay Hotel,805-807 New South Head Rd,ROSE BAY,2029.0,-33.869991,151.269857,Woollahra,,Metropolitan,Tobias Chick,Full hotel,"Extended trading authorisation,Minors area authorisation,Right to keep gaming machines",Yes,No,No,Yes,No,Yes,Yes,No,Rose Bay - Vaucluse - Watsons Bay,No,1.0,21,9,30,0,30,30,2022,,,
LIQH400106165,Liquor - hotel licence,1960-01-11 00:00:00,Current,1960-01-11 00:00:00,Trading,The Unicorn Hotel Paddington,106 Oxford St,PADDINGTON,2021.0,-33.883354,151.221579,Woollahra,,Metropolitan,PBDC PTY LTD,Full hotel,"Extended trading authorisation,Right to keep gaming machines",Yes,No,No,Yes,No,Yes,Yes,No,Paddington - Moore Park,No,1.0,0,0,0,0,0,0,2022,,,
LIQH400103700,Liquor - hotel licence,1960-01-04 00:00:00,Current,2015-07-23 00:00:00,Trading,Manly Hotel,East Esp,MANLY,2095.0,-33.788128,151.285793,Northern Beaches,,Metropolitan,H H RYAN (NOMINEES) PTY LIMITED,Full hotel,"Extended trading authorisation,Right to keep gaming machines",Yes,No,No,Yes,No,Yes,Yes,No,Manly - Fairlight,No,1.0,0,0,0,0,0,0,2022,,,
LIQH400122527,Liquor - hotel licence,1960-01-04 00:00:00,Current,2020-10-21 00:00:00,Trading,Metropolitan Hotel,156 Main St,WEST WYALONG,2671.0,-33.923756,147.204629,Bland,,Country,GDM HOTELS PTY LTD,Full hotel,"Extended trading authorisation,Minors area authorisation,Right to keep gaming machines",Yes,No,No,Yes,No,Yes,Yes,No,West Wyalong,No,2.0,9,0,9,0,9,9,2022,,,
LIQH400109172,Liquor - hotel licence,1959-12-15 00:00:00,Current,2016-06-29 00:00:00,Trading,The Coast Hotel,2 Moonee St,COFFS HARBOUR,2450.0,-30.298023,153.112241,Coffs Harbour,,Country,REDMOND HOTELS PTY LTD,Full hotel,"Extended trading authorisation,Minors area authorisation,Right to keep gaming machines",Yes,No,No,Yes,No,Yes,Yes,Yes,Coffs Harbour - South,Yes,3.0,15,0,15,0,15,15,2022,,,
LIQH400100108,Liquor - hotel licence,1959-12-14 00:00:00,Current,1959-12-14 00:00:00,Trading,Allawah Hotel,Railway Pde & Mona St,ALLAWAH,2218.0,-33.970146,151.114023,Georges River,,Metropolitan,Ratchaphon Makarasen,Full hotel,"Extended trading authorisation,Minors area authorisation,Reduced trading hours,Right to keep gaming ",Yes,Yes,No,Yes,No,Yes,Yes,No,Kogarah Bay - Carlton - Allawah,No,2.0,30,0,30,0,30,30,2022,,,
LIQH400101295,Liquor - hotel licence,1959-12-14 00:00:00,Current,1959-12-14 00:00:00,Trading,Dove and Olive Hotel,Devonshire & Waterloo Sts,SURRY HILLS,2010.0,-33.887115,151.21017,Sydney,,Metropolitan,Rodney Taber,Full hotel,"Extended trading authorisation,Minors area authorisation,Right to keep gaming machines",Yes,No,No,Yes,No,Yes,Yes,No,Surry Hills,No,2.0,9,0,9,0,9,9,2022,,,
LIQH400102062,Liquor - hotel licence,1959-12-14 00:00:00,Current,1959-12-14 00:00:00,Trading,Crocodile Farm Hotel,262 Liverpool Rd,ASHFIELD,2131.0,-33.88851,151.123957,Inner West,,Metropolitan,Jeffrey Williams,Full hotel,"Extended trading authorisation,Minors area authorisation,Reduced trading hours,Right to keep gaming ",Yes,Yes,No,Yes,No,Yes,Yes,Yes,Ashfield,No,2.0,22,8,30,0,30,30,2022,,,
